No,Prefecture,City,latitude,longitude
0,北海道,,43.2203266,142.8634737
1,北海道,札幌市,43.0620958,141.3543763
2,北海道,函館市,41.7687933,140.7288103
3,北海道,小樽市,43.1907173,140.9946622
4,北海道,旭川市,43.7706355,142.364819
5,北海道,室蘭市,42.3152306,140.9737991
6,北海道,釧路市,42.9848542,144.3813556
7,北海道,帯広市,42.9238989,143.1961031
8,北海道,北見市,43.8040314,143.8958758
9,北海道,夕張市,43.0567343,141.9738961
10,北海道,岩見沢市,43.1962055,141.7759332
11,北海道,網走市,44.0206319,144.2733983
12,北海道,留萌市,43.9409868,141.6370118
13,北海道,苫小牧市,42.6343021,141.6053721
14,北海道,稚内市,45.4156641,141.6730822
15,北海道,美唄市,43.3328813,141.8537848
16,北海道,芦別市,43.51816609999999,142.1894364
17,北海道,江別市,43.1037445,141.5362468
18,北海道,赤平市,43.558074,142.044211
19,北海道,紋別市,44.3564842,143.3545032
20,北海道,士別市,44.1787338,142.4004035
21,北海道,名寄市,44.35593799999999,142.4631673
22,北海道,三笠市,43.24543509999999,141.8753272
23,北海道,根室市,43.3300759,145.5827903
24,北海道,千歳市,42.8209577,141.650876
25,北海道,滝川市,43.5577948,141.9101895
26,北海道,砂川市,43.49484289999999,141.903465
27,北海道,歌志内市,43.5213525,142.0345679
28,北海道,深川市,43.7232603,142.0535381
29,北海道,富良野市,43.3421398,142.3832254
30,北海道,登別市,42.4127597,141.1066317
31,北海道,恵庭市,42.8825618,141.5778154
32,北海道,伊達市,42.4718507,140.8646786
33,北海道,北広島市,42.9856296,141.5635426
34,北海道,石狩市,43.1713843,141.3155196
35,北海道,北斗市,41.8240597,140.6529028
36,北海道,当別町,43.2236829,141.5170721
37,北海道,新篠津村,43.2254238,141.649216
38,北海道,松前町,41.43003650000001,140.1104347
39,北海道,福島町,41.4838023,140.251326
40,北海道,知内町,41.5983562,140.4189627
41,北海道,木古内町,41.6782638,140.4375681
42,北海道,七飯町,41.8957197,140.6942803
43,北海道,鹿部町,42.038487,140.8159391
44,北海道,森町,42.1047951,140.5763236
45,北海道,八雲町,42.2559987,140.2652814
46,北海道,長万部町,42.5136882,140.3806331
47,北海道,江差町,41.8691558,140.12746
48,北海道,上ノ国町,41.8010815,140.1213477
49,北海道,厚沢部町,41.9209007,140.2254721
50,北海道,乙部町,41.9685007,140.1357194
51,北海道,奥尻町,42.1612765,139.4521967
52,北海道,今金町,42.4294224,140.0088777
53,北海道,せたな町,42.4171613,139.8829876
54,北海道,島牧村,42.70052039999999,140.0614601
55,北海道,寿都町,42.7909787,140.22898
56,北海道,黒松内町,42.6678643,140.3075397
57,北海道,蘭越町,42.8090753,140.5283121
58,北海道,ニセコ町,42.8047045,140.6874931
59,北海道,真狩村,42.7629713,140.8037439
60,北海道,留寿都村,42.7373599,140.8755913
61,北海道,喜茂別町,42.7954722,140.9345
62,北海道,京極町,42.8582077,140.8840877
63,北海道,倶知安町,42.9018294,140.7586977
64,北海道,共和町,42.980398,140.6111865
65,北海道,岩内町,42.97978510000001,140.5147528
66,北海道,泊村,43.0633549,140.4988595
67,北海道,神恵内村,43.1438128,140.4307422
68,北海道,積丹町,43.2971136,140.4640133
69,北海道,古平町,43.2653602,140.6388197
70,北海道,仁木町,43.1516914,140.7661297
71,北海道,余市町,43.1952319,140.7834674
72,北海道,赤井川村,43.0834898,140.8134806
73,北海道,南幌町,43.0637267,141.650069
74,北海道,奈井江町,43.425106,141.8827879
75,北海道,上砂川町,43.4826077,141.9840843
76,北海道,由仁町,42.9996052,141.790338
77,北海道,長沼町,43.0103533,141.6952515
78,北海道,栗山町,43.0563094,141.7842553
79,北海道,月形町,43.3384362,141.6694511
80,北海道,浦臼町,43.4303222,141.8188366
81,北海道,新十津川町,43.5485474,141.8770323
82,北海道,妹背牛町,43.7001121,141.9617108
83,北海道,秩父別町,43.7670133,141.9579579
84,北海道,雨竜町,43.64392429999999,141.8889902
85,北海道,北竜町,43.7313559,141.8790224
86,北海道,沼田町,43.80680230000001,141.9332716
87,北海道,鷹栖町,43.8433526,142.354451
88,北海道,東神楽町,43.6966257,142.4514372
89,北海道,当麻町,43.8281765,142.5083656
90,北海道,比布町,43.8750755,142.4775518
91,北海道,愛別町,43.9065035,142.5779733
92,北海道,上川町,43.8471803,142.7704314
93,北海道,東川町,43.6989744,142.5103168
94,北海道,美瑛町,43.5881869,142.4669716
95,北海道,上富良野町,43.4556612,142.4670726
96,北海道,中富良野町,43.4056706,142.4251364
97,北海道,南富良野町,43.1639794,142.5684878
98,北海道,占冠村,42.9797787,142.3983574
99,北海道,和寒町,44.0230684,142.4133062
100,北海道,剣淵町,44.0956771,142.3612208
101,北海道,下川町,44.3025034,142.6353082
102,北海道,美深町,44.481126,142.3430142
103,北海道,音威子府村,44.7250039,142.2624637
104,北海道,中川町,44.8113458,142.0714383
105,北海道,幌加内町,44.0098542,142.1539333
106,北海道,増毛町,43.8560329,141.5251976
107,北海道,小平町,44.0151075,141.6625751
108,北海道,苫前町,44.30603989999999,141.6530224
109,北海道,羽幌町,44.3606825,141.6972503
110,北海道,初山別村,44.5321541,141.766409
111,北海道,遠別町,44.7221388,141.792369
112,北海道,天塩町,44.8883411,141.7453968
113,北海道,猿払村,45.3306162,142.1091918
114,北海道,浜頓別町,45.1236936,142.3599479
115,北海道,中頓別町,44.9698186,142.2867355
116,北海道,枝幸町,44.9387137,142.5814108
117,北海道,豊富町,45.10293290000001,141.7775046
118,北海道,礼文町,45.3030198,141.0476889
119,北海道,利尻町,45.18706830000001,141.139627
120,北海道,利尻富士町,45.2477346,141.2143436
121,北海道,幌延町,45.0177111,141.8493841
122,北海道,美幌町,43.8237818,144.1070416
123,北海道,津別町,43.7064534,144.0250319
124,北海道,斜里町,43.91151259999999,144.6706048
125,北海道,清里町,43.835216,144.594562
126,北海道,小清水町,43.8568519,144.4620255
127,北海道,訓子府町,43.7252549,143.7417302
128,北海道,置戸町,43.6763225,143.586397
129,北海道,佐呂間町,44.0177559,143.7745055
130,北海道,遠軽町,44.0619533,143.527947
131,北海道,湧別町,44.1515983,143.5728937
132,北海道,滝上町,44.1922028,143.0775881
133,北海道,興部町,44.4698778,143.1238906
134,北海道,西興部村,44.3288532,142.944392
135,北海道,雄武町,44.5825507,142.9618104
136,北海道,大空町,43.9118502,144.1727093
137,北海道,豊浦町,42.5834471,140.7118317
138,北海道,壮瞥町,42.55228340000001,140.8860143
139,北海道,白老町,42.5512597,141.3559546
140,北海道,厚真町,42.7236623,141.8779349
141,北海道,洞爺湖町,42.5512689,140.7640983
142,北海道,安平町,42.7628151,141.8180174
143,北海道,むかわ町,42.5748066,141.9267504
144,北海道,日高町,42.4802901,142.0743976
145,北海道,平取町,42.58508080000001,142.1285226
146,北海道,新冠町,42.3624055,142.3183321
147,北海道,浦河町,42.1685159,142.7681204
148,北海道,様似町,42.1816868,143.0274002
149,北海道,えりも町,42.01627999999999,143.1484429
150,北海道,新ひだか町,42.3412811,142.3685906
151,北海道,音更町,42.9941431,143.1979595
152,北海道,士幌町,43.1680273,143.2413769
153,北海道,上士幌町,43.2325481,143.2961889
154,北海道,鹿追町,43.09910190000001,142.9890431
155,北海道,新得町,43.0797963,142.8387368
156,北海道,清水町,43.0113563,142.8845401
157,北海道,芽室町,42.9118596,143.0508626
158,北海道,中札内村,42.6976135,143.1324426
159,北海道,更別村,42.65035090000001,143.1878577
160,北海道,大樹町,42.49754,143.2788136
161,北海道,広尾町,42.285838,143.3114956
162,北海道,幕別町,42.9085896,143.3560965
163,北海道,池田町,42.9289549,143.4483552
164,北海道,豊頃町,42.8010515,143.5059188
165,北海道,本別町,43.1247119,143.6105729
166,北海道,足寄町,43.24480090000001,143.5539052
167,北海道,陸別町,43.4689808,143.747243
168,北海道,浦幌町,42.8089273,143.6583957
169,北海道,釧路町,42.9960452,144.466032
170,北海道,厚岸町,43.0518705,144.8473601
171,北海道,浜中町,43.0771446,145.1293689
172,北海道,標茶町,43.3034402,144.6007786
173,北海道,弟子屈町,43.4853479,144.4592208
174,北海道,鶴居村,43.2298868,144.3212155
175,北海道,白糠町,42.9561773,144.0718049
176,北海道,別海町,43.3937874,145.117271
177,北海道,中標津町,43.5552423,144.9713915
178,北海道,標津町,43.6613871,145.131319
179,北海道,羅臼町,44.0218755,145.1896198
180,青森県,,40.8243077,140.7399984
181,青森県,青森市,40.822072,140.7473648
182,青森県,弘前市,40.6031243,140.4639223
183,青森県,八戸市,40.5122839,141.4883986
184,青森県,黒石市,40.6426318,140.5946454
185,青森県,五所川原市,40.80800199999999,140.44009
186,青森県,十和田市,40.612703,141.2059075
187,青森県,三沢市,40.6831337,141.3689761
188,青森県,むつ市,41.2927457,141.1834755
189,青森県,つがる市,40.808639,140.3800593
190,青森県,平川市,40.5840107,140.5664783
191,青森県,平内町,40.9260308,140.9559199
192,青森県,今別町,41.1817573,140.4816543
193,青森県,蓬田村,40.9717139,140.6559658
194,青森県,外ヶ浜町,41.0431593,140.6322957
195,青森県,鰺ヶ沢町,40.779913,140.2086952
196,青森県,深浦町,40.64789529999999,139.927375
197,青森県,西目屋村,40.5767086,140.2962877
198,青森県,藤崎町,40.6560691,140.5028108
199,青森県,大鰐町,40.5181876,140.5678276
200,青森県,田舎館村,40.6312522,140.5501163
201,青森県,板柳町,40.6958936,140.4573242
202,青森県,鶴田町,40.7586045,140.4283821
203,青森県,中泊町,40.9604373,140.4342984
204,青森県,野辺地町,40.8644693,141.1287574
205,青森県,七戸町,40.697416,141.1510208
206,青森県,六戸町,40.6095206,141.3249492
207,青森県,横浜町,41.0831467,141.2477932
208,青森県,東北町,40.7278764,141.2578824
209,青森県,六ヶ所村,40.9673439,141.3745523
210,青森県,おいらせ町,40.5991069,141.3977968
211,青森県,大間町,41.5267705,140.9074381
212,青森県,東通村,41.2777872,141.3289361
213,青森県,風間浦村,41.4875744,140.9957293
214,青森県,佐井村,41.429706,140.8591288
215,青森県,三戸町,40.3784065,141.2587454
216,青森県,五戸町,40.5312247,141.3077904
217,青森県,田子町,40.3399615,141.1520499
218,青森県,南部町,40.466593,141.3819855
219,青森県,階上町,40.4524888,141.6208514
220,青森県,新郷村,40.4656259,141.1734637
221,岩手県,,39.7036194,141.1526839
222,岩手県,盛岡市,39.702053,141.1544838
223,岩手県,宮古市,39.6414202,141.9571394
224,岩手県,大船渡市,39.0819011,141.70853
225,岩手県,花巻市,39.3885784,141.1166454
226,岩手県,北上市,39.2867646,141.1131909
227,岩手県,久慈市,40.1905242,141.7755826
228,岩手県,遠野市,39.3278378,141.5333031
229,岩手県,一関市,38.9346819,141.1268004
230,岩手県,陸前高田市,39.0276607,141.6254946
231,岩手県,釜石市,39.2758183,141.8856772
232,岩手県,二戸市,40.2712133,141.3048166
233,岩手県,八幡平市,39.9564765,141.071292
234,岩手県,奥州市,39.1445286,141.139141
235,岩手県,滝沢市,39.7346838,141.077095
236,岩手県,雫石町,39.6962875,140.9757756
237,岩手県,葛巻町,40.0398964,141.4364652
238,岩手県,岩手町,39.9725899,141.2125163
239,岩手県,紫波町,39.5545679,141.1556586
240,岩手県,矢巾町,39.6059807,141.1428887
241,岩手県,西和賀町,39.434621,140.7501241
242,岩手県,金ケ崎町,39.1957421,141.1163242
243,岩手県,平泉町,38.9866623,141.1138219
244,岩手県,住田町,39.1422298,141.5750473
245,岩手県,大槌町,39.358231,141.8994216
246,岩手県,山田町,39.467662,141.9489501
247,岩手県,岩泉町,39.8430422,141.7963033
248,岩手県,田野畑村,39.9304501,141.8888682
249,岩手県,普代村,40.0051671,141.8859081
250,岩手県,軽米町,40.3267455,141.4606327
251,岩手県,野田村,40.1102662,141.8176683
252,岩手県,九戸村,40.2113917,141.4189854
253,岩手県,洋野町,40.2842629,141.6248331
254,岩手県,一戸町,40.213011,141.2954748
255,宮城県,,38.2688373,140.8721
256,宮城県,仙台市,38.268215,140.8693558
257,宮城県,石巻市,38.4344802,141.3029167
258,宮城県,塩竈市,38.3143623,141.0220272
259,宮城県,気仙沼市,38.90807849999999,141.5699919
260,宮城県,白石市,38.0024779,140.6198605
261,宮城県,名取市,38.1715199,140.8919132
262,宮城県,角田市,37.9770628,140.7819901
263,宮城県,多賀城市,38.2938392,141.004225
264,宮城県,岩沼市,38.1042919,140.8701381
265,宮城県,登米市,38.6919226,141.1875786
266,宮城県,栗原市,38.7301283,141.0213331
267,宮城県,東松島市,38.4261675,141.2102416
268,宮城県,大崎市,38.57707140000001,140.9553495
269,宮城県,富谷市,38.3998148,140.8954076
270,宮城県,蔵王町,38.0981639,140.6584162
271,宮城県,七ヶ宿町,37.9930633,140.4416118
272,宮城県,大河原町,38.0494926,140.730721
273,宮城県,村田町,38.1185394,140.7224037
274,宮城県,柴田町,38.0565628,140.7657902
275,宮城県,川崎町,38.1777367,140.6432024
276,宮城県,丸森町,37.9114293,140.7655281
277,宮城県,亘理町,38.0374595,140.8525812
278,宮城県,山元町,37.9616682,140.8778183
279,宮城県,松島町,38.380128,141.0672439
280,宮城県,七ヶ浜町,38.3046128,141.0591856
281,宮城県,利府町,38.3301895,140.9757222
282,宮城県,大和町,38.43732869999999,140.8863064
283,宮城県,大郷町,38.4242597,141.0044455
284,宮城県,大衡村,38.4672258,140.8800866
285,宮城県,色麻町,38.5489197,140.8498775
286,宮城県,加美町,38.5798999,140.7107955
287,宮城県,涌谷町,38.5396458,141.1280752
288,宮城県,美里町,38.5443912,141.0566946
289,宮城県,女川町,38.44973299999999,141.4430881
290,宮城県,南三陸町,38.6797714,141.4605143
291,秋田県,,39.7186135,140.1023643
292,秋田県,秋田市,39.7199218,140.1035697
293,秋田県,能代市,40.21188970000001,140.026971
294,秋田県,横手市,39.3137816,140.5666488
295,秋田県,大館市,40.271405,140.5642854
296,秋田県,男鹿市,39.8868177,139.847558
297,秋田県,湯沢市,39.1643041,140.4956629
298,秋田県,鹿角市,40.2157778,140.7884362
299,秋田県,由利本荘市,39.3858766,140.0487906
300,秋田県,潟上市,39.8572876,140.013054
301,秋田県,大仙市,39.4530882,140.4754481
302,秋田県,北秋田市,40.2260542,140.3707417
303,秋田県,にかほ市,39.2030116,139.9077127
304,秋田県,仙北市,39.7000694,140.7305881
305,秋田県,小坂町,40.3330917,140.7360806
306,秋田県,上小阿仁村,40.0632663,140.2957665
307,秋田県,藤里町,40.2783599,140.2617039
308,秋田県,三種町,40.1016263,140.0047478
309,秋田県,八峰町,40.3187235,140.0386481
310,秋田県,五城目町,39.9438919,140.1113061
311,秋田県,八郎潟町,39.9493824,140.0733184
312,秋田県,井川町,39.9141689,140.0812938
313,秋田県,大潟村,40.0177915,139.960067
314,秋田県,美郷町,39.4619052,140.581299
315,秋田県,羽後町,39.19932319999999,140.4129231
316,秋田県,東成瀬村,39.1791829,140.6488899
317,山形県,,38.2404355,140.3636333
318,山形県,山形市,38.2554388,140.3396016
319,山形県,米沢市,37.9222401,140.1167811
320,山形県,鶴岡市,38.7271972,139.8267307
321,山形県,酒田市,38.9147858,139.8365708
322,山形県,新庄市,38.7650154,140.3016084
323,山形県,寒河江市,38.38096350000001,140.2759667
324,山形県,上山市,38.149562,140.2678268
325,山形県,村山市,38.4833438,140.3803719
326,山形県,長井市,38.1074936,140.0405238
327,山形県,天童市,38.3622648,140.3778858
328,山形県,東根市,38.4313543,140.3910903
329,山形県,尾花沢市,38.6006216,140.405691
330,山形県,南陽市,38.0551411,140.1483749
331,山形県,山辺町,38.2891143,140.2621778
332,山形県,中山町,38.33311380000001,140.2830341
333,山形県,河北町,38.426271,140.314284
334,山形県,西川町,38.42649919999999,140.1473472
335,山形県,朝日町,38.2992478,140.1459258
336,山形県,大江町,38.3806479,140.2070126
337,山形県,大石田町,38.5938634,140.3726799
338,山形県,金山町,38.8833565,140.3394562
339,山形県,最上町,38.7583866,140.5193536
340,山形県,舟形町,38.6914442,140.3197762
341,山形県,真室川町,38.8578593,140.2523007
342,山形県,大蔵村,38.7041824,140.2303736
343,山形県,鮭川村,38.7964574,140.2220522
344,山形県,戸沢村,38.7374733,140.1438036
345,山形県,高畠町,38.0027363,140.1891601
346,山形県,川西町,38.0044794,140.0457896
347,山形県,小国町,38.0616273,139.7433643
348,山形県,白鷹町,38.183095,140.0984377
349,山形県,飯豊町,38.0458265,139.9875295
350,山形県,三川町,38.7944865,139.8496959
351,山形県,庄内町,38.8499147,139.9047449
352,山形県,遊佐町,39.0146158,139.9073521
353,福島県,,37.7502986,140.4675514
354,福島県,福島市,37.7608337,140.4747281
355,福島県,会津若松市,37.4947611,139.9298096
356,福島県,郡山市,37.400529,140.3597421
357,福島県,いわき市,37.0504195,140.8876817
358,福島県,白河市,37.126362,140.2109427
359,福島県,須賀川市,37.2928933,140.3569753
360,福島県,喜多方市,37.651355,139.8746088
361,福島県,相馬市,37.7973436,140.9188975
362,福島県,二本松市,37.5848581,140.4311291
363,福島県,田村市,37.4405496,140.5764222
364,福島県,南相馬市,37.6421608,140.9572757
365,福島県,伊達市,37.8191383,140.5629082
366,福島県,本宮市,37.5131313,140.3938904
367,福島県,桑折町,37.8495365,140.5163522
368,福島県,国見町,37.8768204,140.5491845
369,福島県,川俣町,37.6650303,140.5982412
370,福島県,大玉村,37.534392,140.3711893
371,福島県,鏡石町,37.25283,140.3434083
372,福島県,天栄村,37.2556061,140.2470738
373,福島県,下郷町,37.25557999999999,139.8721284
374,福島県,檜枝岐村,37.0241455,139.3889446
375,福島県,只見町,37.3488006,139.3160908
376,福島県,南会津町,37.2003948,139.7731988
377,福島県,北塩原村,37.6557147,139.9373744
378,福島県,西会津町,37.5887979,139.6474946
379,福島県,磐梯町,37.5621154,139.9887799
380,福島県,猪苗代町,37.5577684,140.1047605
381,福島県,会津坂下町,37.5614809,139.8216425
382,福島県,湯川村,37.565299,139.8867779
383,福島県,柳津町,37.5261598,139.7195424
384,福島県,三島町,37.4703688,139.6444466
385,福島県,金山町,37.453851,139.524298
386,福島県,昭和村,37.3354164,139.6106602
387,福島県,会津美里町,37.4598538,139.8411779
388,福島県,西郷村,37.1416956,140.1553637
389,福島県,泉崎村,37.1537723,140.3032924
390,福島県,中島村,37.1487567,140.3502042
391,福島県,矢吹町,37.2012775,140.3386085
392,福島県,棚倉町,37.0299054,140.3796482
393,福島県,矢祭町,36.8714026,140.424783
394,福島県,塙町,36.9574372,140.4095729
395,福島県,鮫川村,37.0423273,140.5096693
396,福島県,石川町,37.1570775,140.4467761
397,福島県,玉川村,37.2107058,140.4090385
398,福島県,平田村,37.2217855,140.5758762
399,福島県,浅川町,37.0809947,140.4128094
400,福島県,古殿町,37.0890925,140.5556489
401,福島県,三春町,37.4410476,140.4925685
402,福島県,小野町,37.2868226,140.6262772
403,福島県,広野町,37.2145585,140.994458
404,福島県,楢葉町,37.2825,140.993611
405,福島県,富岡町,37.333056,141.016944
406,福島県,川内村,37.3376905,140.8093447
407,福島県,大熊町,37.404444,140.983611
408,福島県,双葉町,37.449167,141.0125
409,福島県,浪江町,37.483333,141.0
410,福島県,葛尾村,37.503611,140.764444
411,福島県,新地町,37.8763568,140.9195994
412,福島県,飯舘村,37.67919029999999,140.7352474
413,茨城県,,36.3418112,140.4467935
414,茨城県,水戸市,36.3665027,140.4709965
415,茨城県,日立市,36.5991539,140.6514693
416,茨城県,土浦市,36.0782972,140.2043331
417,茨城県,古河市,36.1846451,139.7025248
418,茨城県,石岡市,36.1909565,140.2885698
419,茨城県,結城市,36.3054165,139.8766414
420,茨城県,龍ケ崎市,35.911594,140.1822645
421,茨城県,下妻市,36.1845136,139.9673744
422,茨城県,常総市,36.0234937,139.993617
423,茨城県,常陸太田市,36.5382746,140.5309497
424,茨城県,高萩市,36.719147,140.7166877
425,茨城県,北茨城市,36.8019113,140.7509791
426,茨城県,笠間市,36.3453,140.3043542
427,茨城県,取手市,35.9114415,140.0504684
428,茨城県,牛久市,35.9793751,140.1495237
429,茨城県,つくば市,36.0834857,140.0766423
430,茨城県,ひたちなか市,36.3966149,140.5346762
431,茨城県,鹿嶋市,35.9657558,140.6448128
432,茨城県,潮来市,35.9471227,140.5553722
433,茨城県,守谷市,35.9514207,139.9753912
434,茨城県,常陸大宮市,36.5425766,140.41089
435,茨城県,那珂市,36.4574688,140.486854
436,茨城県,筑西市,36.3070525,139.9831233
437,茨城県,坂東市,36.0482245,139.8888953
438,茨城県,稲敷市,35.97294,140.3036454
439,茨城県,かすみがうら市,36.09452890000001,140.3306914
440,茨城県,桜川市,36.3272504,140.0904332
441,茨城県,神栖市,35.889966,140.6645134
442,茨城県,行方市,35.9904155,140.4890254
443,茨城県,鉾田市,36.15864,140.5164611
444,茨城県,つくばみらい市,35.9626656,140.0367116
445,茨城県,小美玉市,36.2393446,140.3525755
446,茨城県,茨城町,36.28692059999999,140.4245143
447,茨城県,大洗町,36.3134425,140.5749744
448,茨城県,城里町,36.4793634,140.3761658
449,茨城県,東海村,36.4728795,140.5662985
450,茨城県,大子町,36.7680962,140.3552657
451,茨城県,美浦村,36.004562,140.3019141
452,茨城県,阿見町,36.0307951,140.2147859
453,茨城県,河内町,35.8847938,140.2444653
454,茨城県,八千代町,36.1816352,139.8911287
455,茨城県,五霞町,36.114113,139.745832
456,茨城県,境町,36.1084264,139.7949611
457,茨城県,利根町,35.8577473,140.1391482
458,栃木県,,36.565725,139.8835651
459,栃木県,宇都宮市,36.5551124,139.8828072
460,栃木県,足利市,36.3401513,139.4496984
461,栃木県,栃木市,36.3823804,139.734081
462,栃木県,佐野市,36.3143491,139.578341
463,栃木県,鹿沼市,36.56711050000001,139.7450127
464,栃木県,日光市,36.7199026,139.6982161
465,栃木県,小山市,36.3146714,139.800131
466,栃木県,真岡市,36.4404189,140.0134416
467,栃木県,大田原市,36.871484,140.0174187
468,栃木県,矢板市,36.8066862,139.924054
469,栃木県,那須塩原市,36.961698,140.046066
470,栃木県,さくら市,36.6853014,139.9664523
471,栃木県,那須烏山市,36.6568934,140.1514256
472,栃木県,下野市,36.3951438,139.8520771
473,栃木県,上三川町,36.4392955,139.9098843
474,栃木県,益子町,36.4673531,140.093378
475,栃木県,茂木町,36.5321204,140.1875648
476,栃木県,市貝町,36.5433083,140.102046
477,栃木県,芳賀町,36.5483233,140.0581963
478,栃木県,壬生町,36.4270577,139.8039321
479,栃木県,野木町,36.2332513,139.7407502
480,栃木県,塩谷町,36.7776128,139.8505699
481,栃木県,高根沢町,36.630973,139.9866835
482,栃木県,那須町,37.0197314,140.1210169
483,栃木県,那珂川町,36.7616607,140.1300723
484,群馬県,,36.3906675,139.0604061
485,群馬県,前橋市,36.3894816,139.0634281
486,群馬県,高崎市,36.3219088,139.0032936
487,群馬県,桐生市,36.4054907,139.3306875
488,群馬県,伊勢崎市,36.3113639,139.1967703
489,群馬県,太田市,36.2911223,139.3754708
490,群馬県,沼田市,36.6460769,139.0441608
491,群馬県,館林市,36.2448485,139.5419678
492,群馬県,渋川市,36.4894706,139.0004482
493,群馬県,藤岡市,36.2584765,139.0744386
494,群馬県,富岡市,36.2598962,138.8899322
495,群馬県,安中市,36.3263676,138.8873239
496,群馬県,みどり市,36.3948381,139.2811346
497,群馬県,榛東村,36.438642,138.9671176
498,群馬県,吉岡町,36.4475005,139.009766
499,群馬県,上野村,36.083143,138.7773756
500,群馬県,神流町,36.1160556,138.9169554
501,群馬県,下仁田町,36.2123898,138.7890944
502,群馬県,南牧村,36.1585477,138.7114062
503,群馬県,甘楽町,36.2429538,138.9216824
504,群馬県,中之条町,36.5898925,138.8409863
505,群馬県,長野原町,36.55244560000001,138.6374772
506,群馬県,嬬恋村,36.5168739,138.530182
507,群馬県,草津町,36.6207784,138.5960529
508,群馬県,高山村,36.6208865,138.9434494
509,群馬県,東吾妻町,36.571347,138.8254716
510,群馬県,片品村,36.7724689,139.2252431
511,群馬県,川場村,36.6946691,139.1065343
512,群馬県,昭和村,36.639753,139.0658646
513,群馬県,みなかみ町,36.6786996,138.9990639
514,群馬県,玉村町,36.3044326,139.1149133
515,群馬県,板倉町,36.2229523,139.6102711
516,群馬県,明和町,36.2112997,139.5342444
517,群馬県,千代田町,36.2177535,139.4424346
518,群馬県,大泉町,36.2479019,139.4048702
519,群馬県,邑楽町,36.2523944,139.4622862
520,埼玉県,,35.8569991,139.6488487
521,埼玉県,さいたま市,35.8617292,139.6454822
522,埼玉県,川越市,35.9251006,139.485793
523,埼玉県,熊谷市,36.1473097,139.3886446
524,埼玉県,川口市,35.8077379,139.7241712
525,埼玉県,行田市,36.1389486,139.4556427
526,埼玉県,秩父市,35.9920551,139.0848169
527,埼玉県,所沢市,35.7996715,139.4686101
528,埼玉県,飯能市,35.8557309,139.327734
529,埼玉県,加須市,36.1314381,139.6017194
530,埼玉県,本庄市,36.2435676,139.190393
531,埼玉県,東松山市,36.0421262,139.3999588
532,埼玉県,春日部市,35.9751984,139.7523007
533,埼玉県,狭山市,35.8529421,139.4122129
534,埼玉県,羽生市,36.1726261,139.5484646
535,埼玉県,鴻巣市,36.0657584,139.5221694
536,埼玉県,深谷市,36.1974437,139.2814638
537,埼玉県,上尾市,35.9773805,139.5932055
538,埼玉県,草加市,35.8253547,139.8054022
539,埼玉県,越谷市,35.8910841,139.7909377
540,埼玉県,蕨市,35.825634,139.679708
541,埼玉県,戸田市,35.8176157,139.6778917
542,埼玉県,入間市,35.8357657,139.3910576
543,埼玉県,朝霞市,35.7972524,139.5939165
544,埼玉県,志木市,35.8367501,139.5803194
545,埼玉県,和光市,35.7812079,139.6057934
546,埼玉県,新座市,35.79351090000001,139.565369
547,埼玉県,桶川市,36.0057789,139.5425311
548,埼玉県,久喜市,36.0619954,139.666838
549,埼玉県,北本市,36.0267679,139.5302112
550,埼玉県,八潮市,35.822536,139.8391748
551,埼玉県,富士見市,35.8567586,139.5490737
552,埼玉県,三郷市,35.8301491,139.8722748
553,埼玉県,蓮田市,35.9943071,139.6621058
554,埼玉県,坂戸市,35.9571698,139.4029055
555,埼玉県,幸手市,36.0780722,139.7258607
556,埼玉県,鶴ヶ島市,35.934515,139.3930979
557,埼玉県,日高市,35.9077959,139.3390264
558,埼玉県,吉川市,35.8911519,139.841375
559,埼玉県,ふじみ野市,35.8795383,139.5197639
560,埼玉県,白岡市,36.0190258,139.6769253
561,埼玉県,伊奈町,36.000112,139.6241854
562,埼玉県,三芳町,35.8283669,139.526432
563,埼玉県,毛呂山町,35.9415006,139.3160672
564,埼玉県,越生町,35.9644777,139.294199
565,埼玉県,滑川町,36.0659869,139.3609167
566,埼玉県,嵐山町,36.0566545,139.3205421
567,埼玉県,小川町,36.0566972,139.2618452
568,埼玉県,川島町,35.9924932,139.4843453
569,埼玉県,吉見町,36.039853,139.4537276
570,埼玉県,鳩山町,35.9814657,139.3341007
571,埼玉県,ときがわ町,36.0086199,139.2968437
572,埼玉県,横瀬町,35.9872836,139.1000458
573,埼玉県,皆野町,36.0708398,139.0987543
574,埼玉県,長瀞町,36.1148031,139.1097173
575,埼玉県,小鹿野町,36.0171293,139.0085736
576,埼玉県,東秩父村,36.0581534,139.1946067
577,埼玉県,美里町,36.1771043,139.1814099
578,埼玉県,神川町,36.2138763,139.1017757
579,埼玉県,上里町,36.2516069,139.1448257
580,埼玉県,寄居町,36.1183484,139.1930115
581,埼玉県,宮代町,36.0226816,139.7228851
582,埼玉県,杉戸町,36.0257648,139.7367092
583,埼玉県,松伏町,35.9257735,139.8151782
584,千葉県,,35.6050574,140.1233063
585,千葉県,千葉市,35.6072668,140.1062907
586,千葉県,銚子市,35.7346813,140.8266406
587,千葉県,市川市,35.7219115,139.9310099
588,千葉県,船橋市,35.6947058,139.982618
589,千葉県,館山市,34.9965057,139.8699653
590,千葉県,木更津市,35.3812265,139.92486
591,千葉県,松戸市,35.7876491,139.903093
592,千葉県,野田市,35.9551921,139.8747636
593,千葉県,茂原市,35.4285439,140.2880265
594,千葉県,成田市,35.7766076,140.3187806
595,千葉県,佐倉市,35.7234861,140.2239639
596,千葉県,東金市,35.5599438,140.3660922
597,千葉県,旭市,35.7204338,140.6464692
598,千葉県,習志野市,35.6830349,140.0243648
599,千葉県,柏市,35.8676124,139.9758505
600,千葉県,勝浦市,35.152283,140.3209324
601,千葉県,市原市,35.4978377,140.1156648
602,千葉県,流山市,35.8563097,139.9026602
603,千葉県,八千代市,35.7224684,140.0997724
604,千葉県,我孫子市,35.8641227,140.0282255
605,千葉県,鴨川市,35.1139867,140.0987111
606,千葉県,鎌ケ谷市,35.7767501,140.0007904
607,千葉県,君津市,35.3304502,139.9026768
608,千葉県,富津市,35.3041204,139.8571048
609,千葉県,浦安市,35.653153,139.9019174
610,千葉県,四街道市,35.6698162,140.1679247
611,千葉県,袖ケ浦市,35.4298081,139.9544301
612,千葉県,八街市,35.665917,140.3179516
613,千葉県,印西市,35.83234849999999,140.1458154
614,千葉県,白井市,35.7914999,140.0563717
615,千葉県,富里市,35.7268082,140.3430579
616,千葉県,南房総市,35.0429906,139.8401276
617,千葉県,匝瑳市,35.7079167,140.5642812
618,千葉県,香取市,35.89773539999999,140.4992682
619,千葉県,山武市,35.6029638,140.4135064
620,千葉県,いすみ市,35.25388880000001,140.3850506
621,千葉県,大網白里市,35.521708,140.32096
622,千葉県,酒々井町,35.7248237,140.2695466
623,千葉県,栄町,35.8407836,140.243831
624,千葉県,神崎町,35.9016024,140.4052846
625,千葉県,多古町,35.7354336,140.4677275
626,千葉県,東庄町,35.8371504,140.6685809
627,千葉県,九十九里町,35.53506220000001,140.44025
628,千葉県,芝山町,35.6930556,140.4141935
629,千葉県,横芝光町,35.6655675,140.5043095
630,千葉県,一宮町,35.3726232,140.3686594
631,千葉県,睦沢町,35.361088,140.3192727
632,千葉県,長生村,35.4121844,140.3540599
633,千葉県,白子町,35.4543403,140.374234
634,千葉県,長柄町,35.43112500000001,140.2270591
635,千葉県,長南町,35.3864209,140.2370646
636,千葉県,大多喜町,35.2851911,140.2454387
637,千葉県,御宿町,35.1915057,140.3487955
638,千葉県,鋸南町,35.111159,139.8355095
639,東京都,,35.6894875,139.6917064
640,東京都,千代田区,35.6940027,139.7535951
641,東京都,中央区,35.6706505,139.7718614
642,東京都,港区,35.6580681,139.7515992
643,東京都,新宿区,35.6938401,139.7035494
644,東京都,文京区,35.7080677,139.752167
645,東京都,台東区,35.712607,139.7799956
646,東京都,墨田区,35.71072150000001,139.8014968
647,東京都,江東区,35.6728535,139.8174097
648,東京都,品川区,35.6092261,139.7301861
649,東京都,目黒区,35.6414629,139.6981712
650,東京都,大田区,35.5612568,139.7160511
651,東京都,世田谷区,35.6465721,139.6532473
652,東京都,渋谷区,35.6617773,139.7040506
653,東京都,中野区,35.7073985,139.6638354
654,東京都,杉並区,35.6995657,139.6364379
655,東京都,豊島区,35.7261178,139.7166049
656,東京都,北区,35.7528042,139.7334805
657,東京都,荒川区,35.73608,139.783369
658,東京都,板橋区,35.75116480000001,139.7092437
659,東京都,練馬区,35.7356234,139.6516577
660,東京都,足立区,35.7756644,139.8044788
661,東京都,葛飾区,35.7435748,139.8471797
662,東京都,江戸川区,35.7066569,139.8684267
663,東京都,八王子市,35.6663394,139.3158056
664,東京都,立川市,35.7140142,139.4078431
665,東京都,武蔵野市,35.7177841,139.56626
666,東京都,三鷹市,35.683513,139.5595842
667,東京都,青梅市,35.7879958,139.2758298
668,東京都,府中市,35.6689735,139.4776614
669,東京都,昭島市,35.7057552,139.3535483
670,東京都,調布市,35.6506145,139.5406936
671,東京都,町田市,35.546631,139.4386186
672,東京都,小金井市,35.6994733,139.5029916
673,東京都,小平市,35.7285774,139.477456
674,東京都,日野市,35.6713374,139.3949261
675,東京都,東村山市,35.7545968,139.4684892
676,東京都,国分寺市,35.7103347,139.4631912
677,東京都,国立市,35.6838846,139.4413803
678,東京都,福生市,35.7384505,139.3269322
679,東京都,狛江市,35.6349115,139.5787325
680,東京都,東大和市,35.7453692,139.4265933
681,東京都,清瀬市,35.7857526,139.5264304
682,東京都,東久留米市,35.7580477,139.5297392
683,東京都,武蔵村山市,35.7548614,139.3873993
684,東京都,多摩市,35.6370041,139.4463069
685,東京都,稲城市,35.6379238,139.5045669
686,東京都,羽村市,35.7672215,139.3109437
687,東京都,あきる野市,35.7289201,139.2941195
688,東京都,西東京市,35.7254963,139.5381564
689,東京都,瑞穂町,35.7718945,139.3537712
690,東京都,日の出町,35.7421424,139.2574438
691,東京都,檜原村,35.726839,139.1488663
692,東京都,奥多摩町,35.8095427,139.0961971
693,東京都,大島町,34.7500396,139.3555791
694,東京都,利島村,34.5293636,139.2825846
695,東京都,新島村,34.3771343,139.2565714
696,東京都,神津島村,34.20526660000001,139.1342549
697,東京都,三宅村,34.07577420000001,139.4797441
698,東京都,御蔵島村,33.8973664,139.5961163
699,東京都,八丈町,33.1127398,139.7890648
700,東京都,青ヶ島村,32.4664592,139.7633115
701,東京都,小笠原村,27.0943662,142.1919184
702,神奈川県,,35.4475073,139.6423446
703,神奈川県,横浜市,35.4437078,139.6380256
704,神奈川県,川崎市,35.52981980000001,139.7024039
705,神奈川県,相模原市,35.5714621,139.3731765
706,神奈川県,横須賀市,35.2813412,139.6722005
707,神奈川県,平塚市,35.3351103,139.3494762
708,神奈川県,鎌倉市,35.3192254,139.5466868
709,神奈川県,藤沢市,35.3391703,139.490036
710,神奈川県,小田原市,35.2645639,139.1521538
711,神奈川県,茅ヶ崎市,35.3338429,139.4036386
712,神奈川県,逗子市,35.2956059,139.5804228
713,神奈川県,三浦市,35.1441706,139.6207704
714,神奈川県,秦野市,35.3747359,139.2199432
715,神奈川県,厚木市,35.4430818,139.3624889
716,神奈川県,大和市,35.4875124,139.4579498
717,神奈川県,伊勢原市,35.4029686,139.3149729
718,神奈川県,海老名市,35.4464459,139.3908031
719,神奈川県,座間市,35.4885872,139.4076731
720,神奈川県,南足柄市,35.32071450000001,139.0996003
721,神奈川県,綾瀬市,35.4371752,139.4261482
722,神奈川県,葉山町,35.2720886,139.5861995
723,神奈川県,寒川町,35.3729559,139.3838609
724,神奈川県,大磯町,35.3068498,139.3113138
725,神奈川県,二宮町,35.2994912,139.2554024
726,神奈川県,中井町,35.3307172,139.2187741
727,神奈川県,大井町,35.3266743,139.1565774
728,神奈川県,松田町,35.3481594,139.1393753
729,神奈川県,山北町,35.3606049,139.083831
730,神奈川県,開成町,35.3364274,139.1231826
731,神奈川県,箱根町,35.2323553,139.1069375
732,神奈川県,真鶴町,35.1584678,139.1371193
733,神奈川県,湯河原町,35.1479639,139.1083167
734,神奈川県,愛川町,35.5287956,139.3217168
735,神奈川県,清川村,35.4823833,139.2763816
736,新潟県,,37.9025518,139.0230946
737,新潟県,新潟市,37.9161924,139.0364126
738,新潟県,長岡市,37.4462652,138.8512772
739,新潟県,三条市,37.6367679,138.961689
740,新潟県,柏崎市,37.3718999,138.5589836
741,新潟県,新発田市,37.9480749,139.3272925
742,新潟県,小千谷市,37.3143385,138.7950996
743,新潟県,加茂市,37.6662746,139.0401981
744,新潟県,十日町市,37.1275822,138.7557076
745,新潟県,見附市,37.5316041,138.9128246
746,新潟県,村上市,38.22397900000001,139.4800209
747,新潟県,燕市,37.6731518,138.8822296
748,新潟県,糸魚川市,37.0390282,137.8626522
749,新潟県,妙高市,37.0251963,138.2534728
750,新潟県,五泉市,37.7445357,139.1825675
751,新潟県,上越市,37.1478477,138.2360802
752,新潟県,阿賀野市,37.834501,139.2259831
753,新潟県,佐渡市,38.0183525,138.368082
754,新潟県,魚沼市,37.2441239,138.924361
755,新潟県,南魚沼市,37.1614277,138.9254479
756,新潟県,胎内市,38.0597108,139.4103418
757,新潟県,聖籠町,37.9745969,139.2743358
758,新潟県,弥彦村,37.6910655,138.855249
759,新潟県,田上町,37.6988262,139.0579819
760,新潟県,阿賀町,37.6754853,139.4587799
761,新潟県,出雲崎町,37.5307069,138.7093026
762,新潟県,湯沢町,36.93402469999999,138.8174402
763,新潟県,津南町,37.0142742,138.6526221
764,新潟県,刈羽村,37.4219782,138.6225334
765,新潟県,関川村,38.0893756,139.5649177
766,新潟県,粟島浦村,38.468267,139.2544392
767,富山県,,36.6952907,137.2113382
768,富山県,富山市,36.6959518,137.2136768
769,富山県,高岡市,36.7540964,137.0257282
770,富山県,魚津市,36.8273674,137.4092146
771,富山県,氷見市,36.8559811,136.9728488
772,富山県,滑川市,36.7643778,137.3411906
773,富山県,黒部市,36.8715082,137.4480303
774,富山県,砺波市,36.6475336,136.9620085
775,富山県,小矢部市,36.6755751,136.8686222
776,富山県,南砺市,36.5575131,136.8753356
777,富山県,射水市,36.7304638,137.0753888
778,富山県,舟橋村,36.7035313,137.3073768
779,富山県,上市町,36.698414,137.3623804
780,富山県,立山町,36.6635222,137.3136968
781,富山県,入善町,36.9335108,137.5020445
782,富山県,朝日町,36.94619,137.5599425
783,石川県,,36.5946816,136.6255726
784,石川県,金沢市,36.56132540000001,136.6562051
785,石川県,七尾市,37.043102,136.9675177
786,石川県,小松市,36.4083514,136.445571
787,石川県,輪島市,37.3905901,136.8991957
788,石川県,珠洲市,37.4363473,137.2604364
789,石川県,加賀市,36.3026243,136.3146271
790,石川県,羽咋市,36.8935987,136.7789962
791,石川県,かほく市,36.7198261,136.7067268
792,石川県,白山市,36.51442710000001,136.5658915
793,石川県,能美市,36.4469409,136.5542417
794,石川県,野々市市,36.51970439999999,136.6099711
795,石川県,川北町,36.4685019,136.5424008
796,石川県,津幡町,36.6686933,136.7284416
797,石川県,内灘町,36.6534936,136.6450863
798,石川県,志賀町,37.006312,136.7780102
799,石川県,宝達志水町,36.8627731,136.797529
800,石川県,中能登町,36.9888836,136.9018324
801,石川県,穴水町,37.230995,136.9124745
802,石川県,能登町,37.3532156,137.2445214
803,福井県,,36.0651779,136.2215269
804,福井県,福井市,36.0640669,136.2194938
805,福井県,敦賀市,35.6452443,136.0554408
806,福井県,小浜市,35.4955931,135.7466439
807,福井県,大野市,35.9798141,136.4875638
808,福井県,勝山市,36.060945,136.5005841
809,福井県,鯖江市,35.9565532,136.1844742
810,福井県,あわら市,36.2113529,136.2290254
811,福井県,越前市,35.9034986,136.16878
812,福井県,坂井市,36.1669252,136.2314572
813,福井県,永平寺町,36.0922564,136.2987065
814,福井県,池田町,35.8904722,136.3439071
815,福井県,南越前町,35.8351641,136.1944655
816,福井県,越前町,35.974208,136.1297425
817,福井県,美浜町,35.60053,135.9405428
818,福井県,高浜町,35.4879782,135.5458544
819,福井県,おおい町,35.4811656,135.6178284
820,福井県,若狭町,35.4618879,135.857211
821,山梨県,,35.6641575,138.5684486
822,山梨県,甲府市,35.66228,138.5682015
823,山梨県,富士吉田市,35.4874967,138.8078541
824,山梨県,都留市,35.5516801,138.9054727
825,山梨県,山梨市,35.6933937,138.6869138
826,山梨県,大月市,35.6104852,138.9400276
827,山梨県,韮崎市,35.708897,138.4461267
828,山梨県,南アルプス市,35.6083275,138.464966
829,山梨県,北杜市,35.7765303,138.4237811
830,山梨県,甲斐市,35.686259,138.4872571
831,山梨県,笛吹市,35.6473601,138.6397857
832,山梨県,上野原市,35.6302591,139.1085986
833,山梨県,甲州市,35.7043159,138.7294044
834,山梨県,中央市,35.5996289,138.5172718
835,山梨県,市川三郷町,35.5653032,138.5023694
836,山梨県,早川町,35.4129168,138.3627586
837,山梨県,身延町,35.4674943,138.4424601
838,山梨県,南部町,35.2423521,138.4861091
839,山梨県,富士川町,35.5611557,138.4613835
840,山梨県,昭和町,35.6279255,138.5351422
841,山梨県,道志村,35.5279563,139.033379
842,山梨県,西桂町,35.5240685,138.8468914
843,山梨県,忍野村,35.460098,138.8478614
844,山梨県,山中湖村,35.4106445,138.8609166
845,山梨県,鳴沢村,35.4813922,138.7063623
846,山梨県,富士河口湖町,35.4973137,138.7550838
847,山梨県,小菅村,35.760124,138.9401611
848,山梨県,丹波山村,35.7897122,138.9222313
849,長野県,,36.6512986,138.1809557
850,長野県,長野市,36.6485829,138.1947709
851,長野県,松本市,36.2380381,137.9720341
852,長野県,上田市,36.4019115,138.2488888
853,長野県,岡谷市,36.0670115,138.0493255
854,長野県,飯田市,35.5149777,137.8214466
855,長野県,諏訪市,36.0391417,138.1141816
856,長野県,須坂市,36.6510973,138.3071917
857,長野県,小諸市,36.3274191,138.4258801
858,長野県,伊那市,35.827481,137.9540801
859,長野県,駒ヶ根市,35.728814,137.9337821
860,長野県,中野市,36.742044,138.3694503
861,長野県,大町市,36.5030179,137.8510941
862,長野県,飯山市,36.8517445,138.3654952
863,長野県,茅野市,35.9955706,138.158893
864,長野県,塩尻市,36.1149723,137.953449
865,長野県,佐久市,36.2488683,138.4768306
866,長野県,千曲市,36.5338965,138.1201078
867,長野県,東御市,36.3594773,138.3302472
868,長野県,安曇野市,36.303951,137.9058011
869,長野県,小海町,36.0950968,138.483472
870,長野県,川上村,35.9754873,138.5786048
871,長野県,南牧村,36.02085580000001,138.4920906
872,長野県,南相木村,36.0359852,138.5469897
873,長野県,北相木村,36.0591688,138.5508833
874,長野県,佐久穂町,36.1611062,138.4835437
875,長野県,軽井沢町,36.3482902,138.596955
876,長野県,御代田町,36.3211831,138.5087842
877,長野県,立科町,36.2720697,138.3159721
878,長野県,青木村,36.3703459,138.1288396
879,長野県,長和町,36.2699107,138.2582301
880,長野県,下諏訪町,36.0695593,138.0801699
881,長野県,富士見町,35.9146214,138.2406985
882,長野県,原村,35.9644559,138.2177201
883,長野県,辰野町,35.9825125,137.9874836
884,長野県,箕輪町,35.9151342,137.9819444
885,長野県,飯島町,35.676737,137.9196802
886,長野県,南箕輪村,35.8729002,137.9750241
887,長野県,中川村,35.6345367,137.9460578
888,長野県,宮田村,35.7689044,137.9443071
889,長野県,松川町,35.5972917,137.9095669
890,長野県,高森町,35.5514969,137.8784372
891,長野県,阿南町,35.3236404,137.8160553
892,長野県,阿智村,35.4437685,137.7475047
893,長野県,平谷村,35.3232356,137.6300298
894,長野県,根羽村,35.2530774,137.5812605
895,長野県,下條村,35.3974139,137.7860511
896,長野県,売木村,35.2710463,137.7113134
897,長野県,天龍村,35.276227,137.85414
898,長野県,泰阜村,35.3775229,137.8460147
899,長野県,喬木村,35.5136822,137.8736999
900,長野県,豊丘村,35.5514389,137.8959746
901,長野県,大鹿村,35.5782224,138.0340168
902,長野県,上松町,35.7840761,137.6940687
903,長野県,南木曽町,35.6037561,137.6090163
904,長野県,木祖村,35.936437,137.7833014
905,長野県,王滝村,35.8093945,137.5509691
906,長野県,大桑村,35.6829108,137.6649184
907,長野県,木曽町,35.8424306,137.691508
908,長野県,麻績村,36.4560887,138.0452894
909,長野県,生坂村,36.4252475,137.9273829
910,長野県,山形村,36.16802759999999,137.8791553
911,長野県,朝日村,36.1235502,137.8661332
912,長野県,筑北村,36.4025531,138.0119383
913,長野県,池田町,36.4213655,137.8745019
914,長野県,松川村,36.4240757,137.8544976
915,長野県,白馬村,36.6981801,137.8618501
916,長野県,小谷村,36.7790671,137.9084048
917,長野県,坂城町,36.4618198,138.1801064
918,長野県,小布施町,36.6974919,138.3120375
919,長野県,高山村,36.6797676,138.3632554
920,長野県,山ノ内町,36.7446337,138.4125962
921,長野県,木島平村,36.858406,138.4068295
922,長野県,野沢温泉村,36.9229021,138.4406411
923,長野県,信濃町,36.8064036,138.2071131
924,長野県,小川村,36.617271,137.9747243
925,長野県,飯綱町,36.7631851,138.2548091
926,長野県,栄村,36.9875141,138.5770691
927,岐阜県,,35.3912272,136.7222906
928,岐阜県,岐阜市,35.4232984,136.7606537
929,岐阜県,大垣市,35.3593842,136.6127502
930,岐阜県,高山市,36.1461236,137.2521729
931,岐阜県,多治見市,35.3328,137.1320765
932,岐阜県,関市,35.495738,136.9178419
933,岐阜県,中津川市,35.4875479,137.5005092
934,岐阜県,美濃市,35.5447697,136.9075396
935,岐阜県,瑞浪市,35.3617124,137.2545866
936,岐阜県,羽島市,35.31991,136.7033494
937,岐阜県,恵那市,35.449314,137.4128083
938,岐阜県,美濃加茂市,35.4402422,137.0156644
939,岐阜県,土岐市,35.3525002,137.183202
940,岐阜県,各務原市,35.3988691,136.8482643
941,岐阜県,可児市,35.4261208,137.0610107
942,岐阜県,山県市,35.5061094,136.7813716
943,岐阜県,瑞穂市,35.4040939,136.6497738
944,岐阜県,飛騨市,36.2381244,137.186317
945,岐阜県,本巣市,35.4830469,136.6787656
946,岐阜県,郡上市,35.7485771,136.9643543
947,岐阜県,下呂市,35.8058817,137.2441002
948,岐阜県,海津市,35.2204924,136.6366621
949,岐阜県,岐南町,35.3897222,136.7833166
950,岐阜県,笠松町,35.3671997,136.763167
951,岐阜県,養老町,35.2997315,136.5644206
952,岐阜県,垂井町,35.3702535,136.5271017
953,岐阜県,関ケ原町,35.3655173,136.4669821
954,岐阜県,神戸町,35.4173682,136.6084587
955,岐阜県,輪之内町,35.2851076,136.6374353
956,岐阜県,安八町,35.3353906,136.6654092
957,岐阜県,揖斐川町,35.4873089,136.5686527
958,岐阜県,大野町,35.4706138,136.6275516
959,岐阜県,池田町,35.4422587,136.5729259
960,岐阜県,北方町,35.4356957,136.6844336
961,岐阜県,坂祝町,35.4266621,136.9854591
962,岐阜県,富加町,35.484883,136.9798235
963,岐阜県,川辺町,35.4865788,137.0706082
964,岐阜県,七宗町,35.5437236,137.1198325
965,岐阜県,八百津町,35.4759518,137.141502
966,岐阜県,白川町,35.581859,137.1878238
967,岐阜県,東白川村,35.6425611,137.323751
968,岐阜県,御嵩町,35.43424540000001,137.1307903
969,岐阜県,白川村,36.2708062,136.8984783
970,静岡県,,34.9771201,138.3830845
971,静岡県,静岡市,34.975562,138.3827596
972,静岡県,浜松市,34.7108344,137.7261258
973,静岡県,沼津市,35.0955842,138.8634925
974,静岡県,熱海市,35.0962764,139.0717047
975,静岡県,三島市,35.11840249999999,138.9185126
976,静岡県,富士宮市,35.2220541,138.6216428
977,静岡県,伊東市,34.9656705,139.1019363
978,静岡県,島田市,34.8363636,138.1759966
979,静岡県,富士市,35.1613985,138.6762728
980,静岡県,磐田市,34.71790350000001,137.8515133
981,静岡県,焼津市,34.8669202,138.3231893
982,静岡県,掛川市,34.7687667,137.998168
983,静岡県,藤枝市,34.8673673,138.2574584
984,静岡県,御殿場市,35.3087148,138.93487
985,静岡県,袋井市,34.7501735,137.9246792
986,静岡県,下田市,34.6795334,138.945316
987,静岡県,裾野市,35.1738825,138.9067292
988,静岡県,湖西市,34.71846550000001,137.5316257
989,静岡県,伊豆市,34.9765857,138.946704
990,静岡県,御前崎市,34.6379866,138.1281269
991,静岡県,菊川市,34.7577461,138.0845816
992,静岡県,伊豆の国市,35.0277354,138.9289209
993,静岡県,牧之原市,34.7400427,138.2246522
994,静岡県,東伊豆町,34.7728354,139.0413109
995,静岡県,河津町,34.7570325,138.9875377
996,静岡県,南伊豆町,34.6510915,138.8585273
997,静岡県,松崎町,34.7527688,138.7787261
998,静岡県,西伊豆町,34.7716761,138.7753562
999,静岡県,函南町,35.0889727,138.9533659
1000,静岡県,清水町,35.0990154,138.9027173
1001,静岡県,長泉町,35.1376702,138.8971778
1002,静岡県,小山町,35.3601074,138.9872985
1003,静岡県,吉田町,34.7708696,138.2519931
1004,静岡県,川根本町,35.0468333,138.0816946
1005,静岡県,森町,34.8356273,137.9270187
1006,愛知県,,35.1801883,136.9065647
1007,愛知県,名古屋市,35.1814464,136.906398
1008,愛知県,豊橋市,34.7691995,137.3914662
1009,愛知県,岡崎市,34.9543786,137.1743293
1010,愛知県,一宮市,35.3038899,136.8029326
1011,愛知県,瀬戸市,35.22395789999999,137.0840296
1012,愛知県,半田市,34.8917179,136.937961
1013,愛知県,春日井市,35.247611,136.9722236
1014,愛知県,豊川市,34.8268506,137.3755423
1015,愛知県,津島市,35.1770291,136.7412138
1016,愛知県,碧南市,34.8848038,136.9933755
1017,愛知県,刈谷市,34.9892245,137.0021069
1018,愛知県,豊田市,35.0823947,137.1562491
1019,愛知県,安城市,34.9586414,137.080297
1020,愛知県,西尾市,34.8619367,137.0618498
1021,愛知県,蒲郡市,34.8265004,137.2195158
1022,愛知県,犬山市,35.3786067,136.9445638
1023,愛知県,常滑市,34.8867002,136.8323973
1024,愛知県,江南市,35.3320112,136.8706172
1025,愛知県,小牧市,35.2903104,136.9109515
1026,愛知県,稲沢市,35.2481321,136.780202
1027,愛知県,新城市,34.8992291,137.4984758
1028,愛知県,東海市,35.0228426,136.90253
1029,愛知県,大府市,35.01165659999999,136.9638347
1030,愛知県,知多市,34.9965332,136.8647553
1031,愛知県,知立市,35.0012715,137.0507493
1032,愛知県,尾張旭市,35.2165127,137.0353957
1033,愛知県,高浜市,34.9275878,136.9872687
1034,愛知県,岩倉市,35.2795027,136.8714306
1035,愛知県,豊明市,35.0536877,137.0129968
1036,愛知県,日進市,35.1320154,137.0394117
1037,愛知県,田原市,34.6688056,137.2642033
1038,愛知県,愛西市,35.1531406,136.7280996
1039,愛知県,清須市,35.1998641,136.8529447
1040,愛知県,北名古屋市,35.2456681,136.8660083
1041,愛知県,弥富市,35.1100184,136.7247393
1042,愛知県,みよし市,35.0894103,137.0748539
1043,愛知県,あま市,35.1703037,136.8008305
1044,愛知県,長久手市,35.1841255,137.0487618
1045,愛知県,東郷町,35.0967482,137.0525529
1046,愛知県,豊山町,35.2504742,136.9120059
1047,愛知県,大口町,35.3324357,136.9076695
1048,愛知県,扶桑町,35.3591401,136.9130789
1049,愛知県,大治町,35.1750781,136.8200949
1050,愛知県,蟹江町,35.1323305,136.7867455
1051,愛知県,飛島村,35.0788481,136.7910782
1052,愛知県,阿久比町,34.9329026,136.9152622
1053,愛知県,東浦町,34.9770943,136.9656216
1054,愛知県,南知多町,34.7151665,136.9299698
1055,愛知県,美浜町,34.7788148,136.9082366
1056,愛知県,武豊町,34.8511342,136.9148034
1057,愛知県,幸田町,34.8644416,137.165617
1058,愛知県,設楽町,35.0972189,137.5714447
1059,愛知県,東栄町,35.0769394,137.6978368
1060,愛知県,豊根村,35.1467376,137.7196997
1061,三重県,,34.7302829,136.5085883
1062,三重県,津市,34.718596,136.5056975
1063,三重県,四日市市,34.9651567,136.6244847
1064,三重県,伊勢市,34.48751439999999,136.7093359
1065,三重県,松阪市,34.5779931,136.5275927
1066,三重県,桑名市,35.0622161,136.683803
1067,三重県,鈴鹿市,34.8818796,136.5842092
1068,三重県,名張市,34.6276593,136.1082959
1069,三重県,尾鷲市,34.0707989,136.1909953
1070,三重県,亀山市,34.8557554,136.4516451
1071,三重県,鳥羽市,34.481435,136.8433615
1072,三重県,熊野市,33.8886037,136.1002367
1073,三重県,いなべ市,35.1157006,136.5614711
1074,三重県,志摩市,34.3281595,136.8296906
1075,三重県,伊賀市,34.7685953,136.1299103
1076,三重県,木曽岬町,35.07558849999999,136.7313866
1077,三重県,東員町,35.0742567,136.5835785
1078,三重県,菰野町,35.02006780000001,136.5073436
1079,三重県,朝日町,35.0342098,136.664352
1080,三重県,川越町,35.0230086,136.6738654
1081,三重県,多気町,34.4961531,136.546146
1082,三重県,明和町,34.5475597,136.6231764
1083,三重県,大台町,34.3933873,136.4078751
1084,三重県,玉城町,34.4902784,136.6309287
1085,三重県,度会町,34.4389225,136.6224659
1086,三重県,大紀町,34.3580446,136.4157919
1087,三重県,南伊勢町,34.3520954,136.7036886
1088,三重県,紀北町,34.2115334,136.3373131
1089,三重県,御浜町,33.8144776,136.048724
1090,三重県,紀宝町,33.7337731,136.0096703
1091,滋賀県,,35.0045306,135.8685899
1092,滋賀県,大津市,35.0178929,135.8546074
1093,滋賀県,彦根市,35.274461,136.2596226
1094,滋賀県,長浜市,35.3808146,136.2787218
1095,滋賀県,近江八幡市,35.1283386,136.0979067
1096,滋賀県,草津市,35.01313409999999,135.959936
1097,滋賀県,守山市,35.0589401,135.9944042
1098,滋賀県,栗東市,35.0216168,135.9979959
1099,滋賀県,甲賀市,34.9661392,136.167092
1100,滋賀県,野洲市,35.0674538,136.0258504
1101,滋賀県,湖南市,35.0041503,136.0846787
1102,滋賀県,高島市,35.3530713,136.0358297
1103,滋賀県,東近江市,35.1124558,136.2077649
1104,滋賀県,米原市,35.3615849,136.370192
1105,滋賀県,日野町,35.0180025,136.2460433
1106,滋賀県,竜王町,35.0608029,136.124535
1107,滋賀県,愛荘町,35.1689395,136.2123671
1108,滋賀県,豊郷町,35.2003431,136.2298933
1109,滋賀県,甲良町,35.2041186,136.2612051
1110,滋賀県,多賀町,35.2219957,136.2920489
1111,京都府,,35.0212466,135.7555968
1112,京都府,京都市,35.0116363,135.7680294
1113,京都府,福知山市,35.2967,135.1265628
1114,京都府,舞鶴市,35.4747971,135.3859918
1115,京都府,綾部市,35.2989163,135.258812
1116,京都府,宇治市,34.8844606,135.7998544
1117,京都府,宮津市,35.5355767,135.1955665
1118,京都府,亀岡市,35.0134082,135.5736091
1119,京都府,城陽市,34.8530082,135.7799739
1120,京都府,向日市,34.9487356,135.698288
1121,京都府,長岡京市,34.926771,135.6957852
1122,京都府,八幡市,34.8755551,135.7076209
1123,京都府,京田辺市,34.8144589,135.7676947
1124,京都府,京丹後市,35.6241658,135.0610001
1125,京都府,南丹市,35.1073741,135.4702596
1126,京都府,木津川市,34.7371622,135.8201167
1127,京都府,大山崎町,34.9028063,135.6884756
1128,京都府,久御山町,34.8814997,135.7326073
1129,京都府,井手町,34.79840799999999,135.8033058
1130,京都府,宇治田原町,34.8526703,135.8568554
1131,京都府,笠置町,34.7604497,135.9393662
1132,京都府,和束町,34.7957098,135.9048804
1133,京都府,精華町,34.7608556,135.785833
1134,京都府,南山城村,34.7727889,135.9935371
1135,京都府,京丹波町,35.164362,135.4230547
1136,京都府,伊根町,35.6751459,135.2726392
1137,京都府,与謝野町,35.5653085,135.1528414
1138,大阪府,,34.6862971,135.5196609
1139,大阪府,大阪市,34.6937378,135.5021651
1140,大阪府,堺市,34.573262,135.482998
1141,大阪府,岸和田市,34.4606341,135.3708291
1142,大阪府,豊中市,34.7812658,135.4697387
1143,大阪府,池田市,34.8217051,135.4284439
1144,大阪府,吹田市,34.7594526,135.51686
1145,大阪府,泉大津市,34.5042794,135.4104641
1146,大阪府,高槻市,34.8461585,135.6172716
1147,大阪府,貝塚市,34.4375837,135.358517
1148,大阪府,守口市,34.7357872,135.5617511
1149,大阪府,枚方市,34.8143402,135.6506583
1150,大阪府,茨木市,34.8163384,135.5685046
1151,大阪府,八尾市,34.6268635,135.6009775
1152,大阪府,泉佐野市,34.4068477,135.3273374
1153,大阪府,富田林市,34.49952740000001,135.5971277
1154,大阪府,寝屋川市,34.7660929,135.6280998
1155,大阪府,河内長野市,34.4580844,135.5642257
1156,大阪府,松原市,34.5778791,135.5518501
1157,大阪府,大東市,34.7120153,135.6236594
1158,大阪府,和泉市,34.483527,135.4235574
1159,大阪府,箕面市,34.8269301,135.4704626
1160,大阪府,柏原市,34.5793052,135.6286422
1161,大阪府,羽曳野市,34.5580348,135.6062119
1162,大阪府,門真市,34.7395423,135.5868904
1163,大阪府,摂津市,34.7773564,135.5618168
1164,大阪府,高石市,34.5207172,135.4424524
1165,大阪府,藤井寺市,34.5742772,135.5974737
1166,大阪府,東大阪市,34.6793301,135.6010123
1167,大阪府,泉南市,34.3660047,135.2733393
1168,大阪府,四條畷市,34.7399405,135.6395329
1169,大阪府,交野市,34.7879438,135.6799533
1170,大阪府,大阪狭山市,34.5037954,135.5556927
1171,大阪府,阪南市,34.3595827,135.2396697
1172,大阪府,島本町,34.8839247,135.66297
1173,大阪府,豊能町,34.9189477,135.4941736
1174,大阪府,能勢町,34.9725505,135.4142742
1175,大阪府,忠岡町,34.48709280000001,135.4013233
1176,大阪府,熊取町,34.4012825,135.355785
1177,大阪府,田尻町,34.393774,135.2911735
1178,大阪府,岬町,34.3169776,135.1421389
1179,大阪府,太子町,34.5186816,135.6476613
1180,大阪府,河南町,34.4916369,135.6296993
1181,大阪府,千早赤阪村,34.4645872,135.6225367
1182,兵庫県,,34.6912688,135.1830706
1183,兵庫県,神戸市,34.690083,135.1955112
1184,兵庫県,姫路市,34.815149,134.6853528
1185,兵庫県,尼崎市,34.7337339,135.4063757
1186,兵庫県,明石市,34.6431066,134.9971787
1187,兵庫県,西宮市,34.7375965,135.3415643
1188,兵庫県,洲本市,34.3424262,134.8956197
1189,兵庫県,芦屋市,34.7269496,135.3041623
1190,兵庫県,伊丹市,34.78430609999999,135.4009473
1191,兵庫県,相生市,34.8036006,134.4680664
1192,兵庫県,豊岡市,35.5445754,134.8201814
1193,兵庫県,加古川市,34.7569503,134.8411775
1194,兵庫県,赤穂市,34.7549564,134.3902842
1195,兵庫県,西脇市,34.9933552,134.9691886
1196,兵庫県,宝塚市,34.7997673,135.3600729
1197,兵庫県,三木市,34.7969439,134.9901968
1198,兵庫県,高砂市,34.7662013,134.7904417
1199,兵庫県,川西市,34.8301347,135.417278
1200,兵庫県,小野市,34.853193,134.9313762
1201,兵庫県,三田市,34.8899959,135.2254534
1202,兵庫県,加西市,34.9279363,134.8416219
1203,兵庫県,篠山市,35.0756607,135.2190508
1204,兵庫県,養父市,35.4046571,134.767671
1205,兵庫県,丹波市,35.1771001,135.0358536
1206,兵庫県,南あわじ市,34.2944796,134.7798555
1207,兵庫県,朝来市,35.3398432,134.8528001
1208,兵庫県,淡路市,34.4396987,134.9150157
1209,兵庫県,宍粟市,35.004417,134.5494659
1210,兵庫県,加東市,34.9185731,134.9733813
1211,兵庫県,たつの市,34.8578626,134.5453598
1212,兵庫県,猪名川町,34.8950369,135.376162
1213,兵庫県,多可町,35.0793335,134.9066503
1214,兵庫県,稲美町,34.7488072,134.913551
1215,兵庫県,播磨町,34.7152992,134.8679115
1216,兵庫県,市川町,34.9893678,134.7633166
1217,兵庫県,福崎町,34.9503019,134.760248
1218,兵庫県,神河町,35.0642263,134.7398307
1219,兵庫県,太子町,34.8332635,134.5722551
1220,兵庫県,上郡町,34.8735631,134.3560976
1221,兵庫県,佐用町,35.0043456,134.3557344
1222,兵庫県,香美町,35.6321859,134.6291781
1223,兵庫県,新温泉町,35.6234812,134.4489388
1224,奈良県,,34.6853345,135.8327421
1225,奈良県,奈良市,34.6850869,135.8050002
1226,奈良県,大和高田市,34.5150463,135.736392
1227,奈良県,大和郡山市,34.6493738,135.7827554
1228,奈良県,天理市,34.596647,135.8373313
1229,奈良県,橿原市,34.5094478,135.792626
1230,奈良県,桜井市,34.5187142,135.8432157
1231,奈良県,五條市,34.3520304,135.6936323
1232,奈良県,御所市,34.4633305,135.7402402
1233,奈良県,生駒市,34.6919598,135.7005364
1234,奈良県,香芝市,34.5412561,135.6989368
1235,奈良県,葛城市,34.5111186,135.7069169
1236,奈良県,宇陀市,34.5280289,135.9522692
1237,奈良県,山添村,34.6812803,136.0437996
1238,奈良県,平群町,34.6291738,135.7006542
1239,奈良県,三郷町,34.6001378,135.6955245
1240,奈良県,斑鳩町,34.6088487,135.7305908
1241,奈良県,安堵町,34.6064797,135.7567809
1242,奈良県,川西町,34.5843941,135.7740381
1243,奈良県,三宅町,34.5736979,135.7731439
1244,奈良県,田原本町,34.5566006,135.7948756
1245,奈良県,曽爾村,34.510647,136.1244777
1246,奈良県,御杖村,34.4883891,136.1659156
1247,奈良県,高取町,34.4495134,135.7931748
1248,奈良県,明日香村,34.47127820000001,135.8206411
1249,奈良県,上牧町,34.5627485,135.7166291
1250,奈良県,王寺町,34.5947249,135.7065514
1251,奈良県,広陵町,34.5427844,135.750835
1252,奈良県,河合町,34.5784717,135.7366715
1253,奈良県,吉野町,34.3960485,135.8576181
1254,奈良県,大淀町,34.3905616,135.7897157
1255,奈良県,下市町,34.3609812,135.7918579
1256,奈良県,黒滝村,34.3093069,135.8521422
1257,奈良県,天川村,34.2419093,135.8551494
1258,奈良県,野迫川村,34.1662571,135.6330634
1259,奈良県,十津川村,33.9884952,135.7924151
1260,奈良県,下北山村,34.0050378,135.9551666
1261,奈良県,上北山村,34.1343216,135.9999884
1262,奈良県,川上村,34.3381073,135.9543248
1263,奈良県,東吉野村,34.4035822,135.9683649
1264,和歌山県,,34.2259867,135.1675086
1265,和歌山県,和歌山市,34.2305113,135.1708083
1266,和歌山県,海南市,34.1553356,135.2092226
1267,和歌山県,橋本市,34.3150526,135.6052962
1268,和歌山県,有田市,34.0830954,135.127635
1269,和歌山県,御坊市,33.8914924,135.1523464
1270,和歌山県,田辺市,33.7280335,135.377768
1271,和歌山県,新宮市,33.7241076,135.9929551
1272,和歌山県,紀の川市,34.2698603,135.3627568
1273,和歌山県,岩出市,34.2562947,135.3113232
1274,和歌山県,紀美野町,34.1672248,135.307489
1275,和歌山県,かつらぎ町,34.2963955,135.5038362
1276,和歌山県,九度山町,34.2871694,135.5622452
1277,和歌山県,高野町,34.2160686,135.5865362
1278,和歌山県,湯浅町,34.0293938,135.1904521
1279,和歌山県,広川町,34.0300321,135.1729926
1280,和歌山県,有田川町,34.0653217,135.2544316
1281,和歌山県,美浜町,33.893756,135.1331007
1282,和歌山県,日高町,33.92573,135.1408832
1283,和歌山県,由良町,33.9592232,135.1183485
1284,和歌山県,印南町,33.8183672,135.2182475
1285,和歌山県,みなべ町,33.7723244,135.3214424
1286,和歌山県,日高川町,33.9117826,135.1858746
1287,和歌山県,白浜町,33.6781645,135.3481343
1288,和歌山県,上富田町,33.6963661,135.4288301
1289,和歌山県,すさみ町,33.5501509,135.4966399
1290,和歌山県,那智勝浦町,33.6259495,135.9410666
1291,和歌山県,太地町,33.594031,135.9439617
1292,和歌山県,古座川町,33.5318395,135.8148018
1293,和歌山県,北山村,33.9320965,135.9692071
1294,和歌山県,串本町,33.47247,135.7814983
1295,鳥取県,,35.5038906,134.2377356
1296,鳥取県,鳥取市,35.5011326,134.2350914
1297,鳥取県,米子市,35.4280717,133.3309447
1298,鳥取県,倉吉市,35.4301794,133.825561
1299,鳥取県,境港市,35.5395916,133.2314862
1300,鳥取県,岩美町,35.5362024,134.3803921
1301,鳥取県,若桜町,35.3401697,134.4009971
1302,鳥取県,智頭町,35.2650504,134.2266122
1303,鳥取県,八頭町,35.4092073,134.2505262
1304,鳥取県,三朝町,35.4085079,133.8623058
1305,鳥取県,湯梨浜町,35.4899593,133.8647814
1306,鳥取県,琴浦町,35.495398,133.6932784
1307,鳥取県,北栄町,35.4900301,133.7583551
1308,鳥取県,日吉津村,35.4402073,133.3807884
1309,鳥取県,大山町,35.5107369,133.4961145
1310,鳥取県,南部町,35.370784,133.3618914
1311,鳥取県,伯耆町,35.385333,133.4071644
1312,鳥取県,日南町,35.1632942,133.3062333
1313,鳥取県,日野町,35.2407912,133.4427861
1314,鳥取県,江府町,35.2831872,133.4885614
1315,島根県,,35.4722952,133.0504997
1316,島根県,松江市,35.4680595,133.048375
1317,島根県,浜田市,34.8993025,132.0797833
1318,島根県,出雲市,35.3670351,132.7546815
1319,島根県,益田市,34.6748172,131.842862
1320,島根県,大田市,35.1921063,132.4992932
1321,島根県,安来市,35.4314422,133.2509151
1322,島根県,江津市,35.0114175,132.2209303
1323,島根県,雲南市,35.3077257,132.9002994
1324,島根県,奥出雲町,35.1974295,133.0025429
1325,島根県,飯南町,34.99862100000001,132.7132826
1326,島根県,川本町,34.9953029,132.495929
1327,島根県,美郷町,35.0766904,132.5905591
1328,島根県,邑南町,34.8939634,132.4379699
1329,島根県,津和野町,34.4671853,131.7731661
1330,島根県,吉賀町,34.4420937,131.8678972
1331,島根県,海士町,36.0965713,133.0967089
1332,島根県,西ノ島町,36.0930267,132.9944224
1333,島根県,知夫村,36.0139287,133.0393856
1334,島根県,隠岐の島町,36.20901360000001,133.3217697
1335,岡山県,,34.6617511,133.9344057
1336,岡山県,岡山市,34.6551456,133.9195019
1337,岡山県,倉敷市,34.5850134,133.7720841
1338,岡山県,津山市,35.0691155,134.0045428
1339,岡山県,玉野市,34.4919434,133.945987
1340,岡山県,笠岡市,34.5071797,133.5074409
1341,岡山県,井原市,34.5976718,133.4636814
1342,岡山県,総社市,34.6728073,133.7465284
1343,岡山県,高梁市,34.7910227,133.6167325
1344,岡山県,新見市,34.9770301,133.4703064
1345,岡山県,備前市,34.7451595,134.1880436
1346,岡山県,瀬戸内市,34.6648872,134.0928459
1347,岡山県,赤磐市,34.7553875,134.0188399
1348,岡山県,真庭市,35.0756019,133.75273
1349,岡山県,美作市,35.0085882,134.1485722
1350,岡山県,浅口市,34.5278392,133.5849216
1351,岡山県,和気町,34.8497294,134.0979231
1352,岡山県,早島町,34.6007021,133.8283536
1353,岡山県,里庄町,34.5137903,133.5568658
1354,岡山県,矢掛町,34.62759320000001,133.5870853
1355,岡山県,新庄村,35.1794575,133.5677343
1356,岡山県,鏡野町,35.0918333,133.9327986
1357,岡山県,勝央町,35.0418399,134.1161826
1358,岡山県,奈義町,35.12302409999999,134.1774247
1359,岡山県,西粟倉村,35.1713307,134.3362728
1360,岡山県,久米南町,34.9292455,133.9606871
1361,岡山県,美咲町,34.997953,133.958163
1362,岡山県,吉備中央町,34.8609653,133.8118064
1363,広島県,,34.3965603,132.4596225
1364,広島県,広島市,34.3852029,132.4552927
1365,広島県,呉市,34.2486458,132.5654407
1366,広島県,竹原市,34.3417943,132.9070883
1367,広島県,三原市,34.3974332,133.0786576
1368,広島県,尾道市,34.4088756,133.2048886
1369,広島県,福山市,34.4858993,133.3623127
1370,広島県,府中市,34.56834670000001,133.2363206
1371,広島県,三次市,34.8055738,132.851674
1372,広島県,庄原市,34.8577316,133.0172775
1373,広島県,大竹市,34.2379773,132.2224752
1374,広島県,東広島市,34.4263804,132.7433068
1375,広島県,廿日市市,34.3482578,132.331622
1376,広島県,安芸高田市,34.66630749999999,132.7042987
1377,広島県,江田島市,34.1749333,132.4621908
1378,広島県,府中町,34.3924864,132.5045797
1379,広島県,海田町,34.3721644,132.5360886
1380,広島県,熊野町,34.3357363,132.5846371
1381,広島県,坂町,34.3412401,132.5137026
1382,広島県,安芸太田町,34.5767445,132.2271409
1383,広島県,北広島町,34.6745579,132.5384161
1384,広島県,大崎上島町,34.2696327,132.9150861
1385,広島県,世羅町,34.6126255,133.058341
1386,広島県,神石高原町,34.7036614,133.2476523
1387,山口県,,34.1859563,131.4706493
1388,山口県,下関市,33.9578307,130.941459
1389,山口県,宇部市,33.9515087,131.2467858
1390,山口県,山口市,34.178496,131.4737269
1391,山口県,萩市,34.4081155,131.3990849
1392,山口県,防府市,34.0517516,131.56269
1393,山口県,下松市,34.0150299,131.8703421
1394,山口県,岩国市,34.1665616,132.2188479
1395,山口県,光市,33.9619132,131.9422817
1396,山口県,長門市,34.3709562,131.1821947
1397,山口県,柳井市,33.9638333,132.1015969
1398,山口県,美祢市,34.1666354,131.2056781
1399,山口県,周南市,34.0551188,131.8061858
1400,山口県,山陽小野田市,34.0030636,131.1819669
1401,山口県,周防大島町,33.9275948,132.1952342
1402,山口県,和木町,34.2024055,132.220408
1403,山口県,上関町,33.830976,132.1107426
1404,山口県,田布施町,33.9547026,132.0413731
1405,山口県,平生町,33.9379884,132.0730517
1406,山口県,阿武町,34.5307289,131.5812154
1407,徳島県,,34.0657179,134.5593601
1408,徳島県,徳島市,34.0702703,134.5548438
1409,徳島県,鳴門市,34.1725623,134.6087858
1410,徳島県,小松島市,34.0047114,134.5906739
1411,徳島県,阿南市,33.9220312,134.6595323
1412,徳島県,吉野川市,34.0256886,134.2598331
1413,徳島県,阿波市,34.1021478,134.2974365
1414,徳島県,美馬市,34.0534034,134.1697495
1415,徳島県,三好市,34.0260411,133.8072634
1416,徳島県,勝浦町,33.9314084,134.5113563
1417,徳島県,上勝町,33.8891621,134.4020515
1418,徳島県,佐那河内村,33.9932081,134.4531218
1419,徳島県,石井町,34.0741734,134.4406902
1420,徳島県,神山町,33.9672908,134.3504607
1421,徳島県,那賀町,33.8206258,134.4788303
1422,徳島県,牟岐町,33.6684066,134.4205552
1423,徳島県,美波町,33.7345532,134.5354438
1424,徳島県,海陽町,33.6020293,134.3519967
1425,徳島県,松茂町,34.1339404,134.580123
1426,徳島県,北島町,34.1255775,134.5469873
1427,徳島県,藍住町,34.1265874,134.49509
1428,徳島県,板野町,34.1443626,134.4626178
1429,徳島県,上板町,34.1213844,134.4048157
1430,徳島県,つるぎ町,34.0373349,134.0640736
1431,徳島県,東みよし町,34.036783,133.936757
1432,香川県,,34.3401491,134.0434436
1433,香川県,高松市,34.3427879,134.046574
1434,香川県,丸亀市,34.2895062,133.7977056
1435,香川県,坂出市,34.3163193,133.8605102
1436,香川県,善通寺市,34.2285327,133.7871132
1437,香川県,観音寺市,34.1284662,133.6628115
1438,香川県,さぬき市,34.325207,134.1721196
1439,香川県,東かがわ市,34.2438086,134.3587426
1440,香川県,三豊市,34.1825473,133.7152193
1441,香川県,土庄町,34.48602169999999,134.1858069
1442,香川県,小豆島町,34.4819984,134.2335955
1443,香川県,三木町,34.2682843,134.1342933
1444,香川県,直島町,34.4597032,133.9956894
1445,香川県,宇多津町,34.3102979,133.8255129
1446,香川県,綾川町,34.2496271,133.9230658
1447,香川県,琴平町,34.191417,133.8233027
1448,香川県,多度津町,34.2724879,133.7536048
1449,香川県,まんのう町,34.1923285,133.8414016
1450,愛媛県,,33.8416238,132.7656808
1451,愛媛県,松山市,33.8391574,132.7655752
1452,愛媛県,今治市,34.0660979,132.99786
1453,愛媛県,宇和島市,33.2233404,132.5605575
1454,愛媛県,八幡浜市,33.4628979,132.4233362
1455,愛媛県,新居浜市,33.96028950000001,133.2833512
1456,愛媛県,西条市,33.9195105,133.1811697
1457,愛媛県,大洲市,33.5061936,132.5445085
1458,愛媛県,伊予市,33.7574293,132.7037292
1459,愛媛県,四国中央市,33.9807605,133.5491949
1460,愛媛県,西予市,33.36262,132.5109925
1461,愛媛県,東温市,33.7910237,132.8722962
1462,愛媛県,上島町,34.2573359,133.2045067
1463,愛媛県,久万高原町,33.6556056,132.901671
1464,愛媛県,松前町,33.7874398,132.7113752
1465,愛媛県,砥部町,33.7492625,132.7922278
1466,愛媛県,内子町,33.532902,132.6580066
1467,愛媛県,伊方町,33.4885738,132.354012
1468,愛媛県,松野町,33.2271893,132.7107986
1469,愛媛県,鬼北町,33.2558573,132.6841037
1470,愛媛県,愛南町,32.962503,132.5834517
1471,高知県,,33.5597062,133.5310786
1472,高知県,高知市,33.5595867,133.5292788
1473,高知県,室戸市,33.2900093,134.1520509
1474,高知県,安芸市,33.5025463,133.9071661
1475,高知県,南国市,33.5756706,133.6414597
1476,高知県,土佐市,33.4960442,133.4252918
1477,高知県,須崎市,33.400745,133.282953
1478,高知県,宿毛市,32.9390085,132.7262855
1479,高知県,土佐清水市,32.7816335,132.9549889
1480,高知県,四万十市,32.9913841,132.9337494
1481,高知県,香南市,33.5641705,133.7004882
1482,高知県,香美市,33.6037185,133.6860033
1483,高知県,東洋町,33.5279371,134.2799737
1484,高知県,奈半利町,33.4241813,134.0209521
1485,高知県,田野町,33.4277082,134.0082927
1486,高知県,安田町,33.4385701,133.9810742
1487,高知県,北川村,33.4476943,134.0420668
1488,高知県,馬路村,33.5553498,134.0481083
1489,高知県,芸西村,33.5269007,133.808914
1490,高知県,本山町,33.7571067,133.5914122
1491,高知県,大豊町,33.7642907,133.6642746
1492,高知県,土佐町,33.7370635,133.5316748
1493,高知県,大川村,33.7839263,133.4666081
1494,高知県,いの町,33.5487544,133.4277729
1495,高知県,仁淀川町,33.5752454,133.1685745
1496,高知県,中土佐町,33.3373463,133.1403612
1497,高知県,佐川町,33.5008691,133.2865301
1498,高知県,越知町,33.5329197,133.2519908
1499,高知県,梼原町,33.3922455,132.9269872
1500,高知県,日高村,33.5348966,133.3733529
1501,高知県,津野町,33.4465795,133.1994688
1502,高知県,四万十町,33.211653,133.1370267
1503,高知県,大月町,32.8414815,132.7070259
1504,高知県,三原村,32.9060126,132.8472421
1505,高知県,黒潮町,33.0249301,133.0109196
1506,福岡県,,33.6065756,130.418297
1507,福岡県,北九州市,33.8834093,130.8752161
1508,福岡県,福岡市,33.5903547,130.4017155
1509,福岡県,大牟田市,33.0302622,130.4459852
1510,福岡県,久留米市,33.3192865,130.5083735
1511,福岡県,直方市,33.7441839,130.7296326
1512,福岡県,飯塚市,33.6459075,130.6915113
1513,福岡県,田川市,33.6389822,130.8062975
1514,福岡県,柳川市,33.1630889,130.4057531
1515,福岡県,八女市,33.2119674,130.5579082
1516,福岡県,筑後市,33.2124469,130.5020928
1517,福岡県,大川市,33.2065943,130.3839576
1518,福岡県,行橋市,33.7287727,130.982967
1519,福岡県,豊前市,33.6115108,131.130051
1520,福岡県,中間市,33.81664980000001,130.7090769
1521,福岡県,小郡市,33.3964164,130.5554383
1522,福岡県,筑紫野市,33.4963423,130.5156572
1523,福岡県,春日市,33.532571,130.4702806
1524,福岡県,大野城市,33.536307,130.478641
1525,福岡県,宗像市,33.8054314,130.5407182
1526,福岡県,太宰府市,33.5127991,130.5239064
1527,福岡県,古賀市,33.7287865,130.4699872
1528,福岡県,福津市,33.7668188,130.491096
1529,福岡県,うきは市,33.347297,130.7549338
1530,福岡県,宮若市,33.7235676,130.6666936
1531,福岡県,嘉麻市,33.560662,130.7668169
1532,福岡県,朝倉市,33.4234125,130.665573
1533,福岡県,みやま市,33.1524253,130.4747203
1534,福岡県,糸島市,33.5573203,130.195555
1535,福岡県,那珂川町,33.4996003,130.4221738
1536,福岡県,宇美町,33.5677786,130.5111124
1537,福岡県,篠栗町,33.6239476,130.5262564
1538,福岡県,志免町,33.5914727,130.479743
1539,福岡県,須恵町,33.5872679,130.507254
1540,福岡県,新宮町,33.7152952,130.4465663
1541,福岡県,久山町,33.6468086,130.4998336
1542,福岡県,粕屋町,33.6107427,130.4805229
1543,福岡県,芦屋町,33.8938005,130.6638959
1544,福岡県,水巻町,33.8547475,130.6948465
1545,福岡県,岡垣町,33.8535993,130.6111041
1546,福岡県,遠賀町,33.8481509,130.668438
1547,福岡県,小竹町,33.6924997,130.7127713
1548,福岡県,鞍手町,33.7922183,130.6739746
1549,福岡県,桂川町,33.5789332,130.677904
1550,福岡県,筑前町,33.4569767,130.5953002
1551,福岡県,東峰村,33.4642922,130.8258916
1552,福岡県,大刀洗町,33.37237229999999,130.6224802
1553,福岡県,大木町,33.2104685,130.4397331
1554,福岡県,広川町,33.2415533,130.551505
1555,福岡県,香春町,33.6679329,130.8473353
1556,福岡県,添田町,33.5718545,130.8539545
1557,福岡県,糸田町,33.6527889,130.779091
1558,福岡県,川崎町,33.5999397,130.8149368
1559,福岡県,大任町,33.6124777,130.8537144
1560,福岡県,赤村,33.6165917,130.8710352
1561,福岡県,福智町,33.6832612,130.7801206
1562,福岡県,苅田町,33.7759209,130.9805103
1563,福岡県,みやこ町,33.6992615,130.9204013
1564,福岡県,吉富町,33.6026429,131.1759479
1565,福岡県,上毛町,33.5784079,131.164113
1566,福岡県,築上町,33.6561123,131.0560626
1567,佐賀県,,33.2494416,130.2997942
1568,佐賀県,佐賀市,33.263482,130.3008576
1569,佐賀県,唐津市,33.4501738,129.9681335
1570,佐賀県,鳥栖市,33.3777547,130.506258
1571,佐賀県,多久市,33.28851,130.1100606
1572,佐賀県,伊万里市,33.2645856,129.880269
1573,佐賀県,武雄市,33.1937487,130.0191505
1574,佐賀県,鹿島市,33.1037238,130.098769
1575,佐賀県,小城市,33.2736648,130.2168637
1576,佐賀県,嬉野市,33.1280839,130.0601144
1577,佐賀県,神埼市,33.3107627,130.3730603
1578,佐賀県,吉野ヶ里町,33.3516787,130.3983572
1579,佐賀県,基山町,33.4268521,130.5228128
1580,佐賀県,上峰町,33.319626,130.4261341
1581,佐賀県,みやき町,33.3249569,130.4544957
1582,佐賀県,玄海町,33.4721834,129.8746978
1583,佐賀県,有田町,33.2105634,129.8492171
1584,佐賀県,大町町,33.2137535,130.1160837
1585,佐賀県,江北町,33.2205924,130.1575277
1586,佐賀県,白石町,33.1810352,130.143496
1587,佐賀県,太良町,33.0194073,130.1789736
1588,長崎県,,32.7448388,129.8737562
1589,長崎県,長崎市,32.7502856,129.877667
1590,長崎県,佐世保市,33.1799153,129.7151101
1591,長崎県,島原市,32.7881027,130.370286
1592,長崎県,諫早市,32.8434379,130.0530952
1593,長崎県,大村市,32.9000901,129.9581416
1594,長崎県,平戸市,33.3680618,129.5536713
1595,長崎県,松浦市,33.3410206,129.7090447
1596,長崎県,対馬市,34.2026624,129.2874904
1597,長崎県,壱岐市,33.7499501,129.6913518
1598,長崎県,五島市,32.6955241,128.8408292
1599,長崎県,西海市,32.9330669,129.642977
1600,長崎県,雲仙市,32.8351972,130.1874996
1601,長崎県,南島原市,32.6597769,130.2978639
1602,長崎県,長与町,32.8251889,129.8750453
1603,長崎県,時津町,32.828888,129.8485357
1604,長崎県,東彼杵町,33.0370255,129.9171493
1605,長崎県,川棚町,33.0727762,129.8611896
1606,長崎県,波佐見町,33.13789000000001,129.8955456
1607,長崎県,小値賀町,33.1910805,129.0587493
1608,長崎県,佐々町,33.2383423,129.650345
1609,長崎県,新上五島町,32.9846446,129.0733907
1610,熊本県,,32.789827,130.7416672
1611,熊本県,熊本市,32.8031004,130.7078911
1612,熊本県,八代市,32.5083871,130.6020961
1613,熊本県,人吉市,32.2100405,130.7625544
1614,熊本県,荒尾市,32.9868355,130.4329585
1615,熊本県,水俣市,32.21188,130.4087225
1616,熊本県,玉名市,32.9352202,130.5628395
1617,熊本県,山鹿市,33.0175778,130.6913646
1618,熊本県,菊池市,32.9794831,130.8133329
1619,熊本県,宇土市,32.6879986,130.6597212
1620,熊本県,上天草市,32.5874193,130.4305268
1621,熊本県,宇城市,32.647847,130.6843654
1622,熊本県,阿蘇市,32.9519535,131.1209554
1623,熊本県,天草市,32.4586347,130.1929825
1624,熊本県,合志市,32.8859878,130.789707
1625,熊本県,美里町,32.6395887,130.7890259
1626,熊本県,玉東町,32.9188997,130.6285431
1627,熊本県,南関町,33.0616098,130.5411621
1628,熊本県,長洲町,32.9296779,130.4528082
1629,熊本県,和水町,32.9781056,130.6058348
1630,熊本県,大津町,32.8785037,130.8683118
1631,熊本県,菊陽町,32.8625151,130.8286233
1632,熊本県,南小国町,33.0986604,131.0703703
1633,熊本県,小国町,33.1215678,131.068144
1634,熊本県,産山村,32.9957599,131.216781
1635,熊本県,高森町,32.8272786,131.1220109
1636,熊本県,西原村,32.8348253,130.90301
1637,熊本県,南阿蘇村,32.8219819,131.0314376
1638,熊本県,御船町,32.7146156,130.8018942
1639,熊本県,嘉島町,32.7400759,130.7572591
1640,熊本県,益城町,32.7919219,130.8165457
1641,熊本県,甲佐町,32.6515994,130.8114655
1642,熊本県,山都町,32.6854525,130.9904547
1643,熊本県,氷川町,32.5825004,130.6737863
1644,熊本県,芦北町,32.2989413,130.4929777
1645,熊本県,津奈木町,32.2338416,130.4395826
1646,熊本県,錦町,32.2011966,130.8411148
1647,熊本県,多良木町,32.2639974,130.9357837
1648,熊本県,湯前町,32.2762837,130.9809022
1649,熊本県,水上村,32.3143423,131.0095459
1650,熊本県,相良村,32.2352694,130.7980949
1651,熊本県,五木村,32.3972765,130.8278163
1652,熊本県,山江村,32.246806,130.7666753
1653,熊本県,球磨村,32.2524308,130.6511626
1654,熊本県,あさぎり町,32.2403158,130.8977933
1655,熊本県,苓北町,32.5131926,130.0548041
1656,大分県,,33.2381718,131.6126189
1657,大分県,大分市,33.2395578,131.609272
1658,大分県,別府市,33.28462,131.4912138
1659,大分県,中津市,33.5982211,131.1883247
1660,大分県,日田市,33.3213327,130.9409659
1661,大分県,佐伯市,32.959806,131.9000575
1662,大分県,臼杵市,33.1260115,131.8051243
1663,大分県,津久見市,33.0721832,131.8612771
1664,大分県,竹田市,32.9737199,131.3980022
1665,大分県,豊後高田市,33.5561601,131.4470905
1666,大分県,杵築市,33.417026,131.6160889
1667,大分県,宇佐市,33.53197189999999,131.3495446
1668,大分県,豊後大野市,32.9775361,131.5841334
1669,大分県,由布市,33.1800131,131.4268555
1670,大分県,国東市,33.5633274,131.7323015
1671,大分県,姫島村,33.7245374,131.645139
1672,大分県,日出町,33.369443,131.5323869
1673,大分県,九重町,33.2285185,131.1887945
1674,大分県,玖珠町,33.2831321,131.1515498
1675,宮崎県,,31.9110956,131.4238934
1676,宮崎県,宮崎市,31.9076736,131.4202411
1677,宮崎県,都城市,31.7195903,131.0616214
1678,宮崎県,延岡市,32.5822723,131.6650094
1679,宮崎県,日南市,31.6019319,131.3787279
1680,宮崎県,小林市,31.9967312,130.9725875
1681,宮崎県,日向市,32.4229442,131.6239652
1682,宮崎県,串間市,31.4645389,131.2283032
1683,宮崎県,西都市,32.1085538,131.4012025
1684,宮崎県,えびの市,32.0453441,130.8107962
1685,宮崎県,三股町,31.7306856,131.124809
1686,宮崎県,高原町,31.9284633,131.0077507
1687,宮崎県,国富町,31.9906436,131.3235354
1688,宮崎県,綾町,31.9991326,131.2531874
1689,宮崎県,高鍋町,32.1279986,131.5033547
1690,宮崎県,新富町,32.0688677,131.4880171
1691,宮崎県,西米良村,32.2262324,131.1544762
1692,宮崎県,木城町,32.1639693,131.4735366
1693,宮崎県,川南町,32.1920706,131.5258684
1694,宮崎県,都農町,32.2562929,131.5595681
1695,宮崎県,門川町,32.4697925,131.6485891
1696,宮崎県,諸塚村,32.512387,131.3304046
1697,宮崎県,椎葉村,32.4673253,131.1581176
1698,宮崎県,美郷町,32.4374035,131.422493
1699,宮崎県,高千穂町,32.71169,131.3077866
1700,宮崎県,日之影町,32.6538161,131.3881459
1701,宮崎県,五ヶ瀬町,32.6830197,131.1963788
1702,鹿児島県,,31.5601464,130.5579779
1703,鹿児島県,鹿児島市,31.5965535,130.5571158
1704,鹿児島県,鹿屋市,31.3782921,130.8520774
1705,鹿児島県,枕崎市,31.2729002,130.2969045
1706,鹿児島県,阿久根市,32.0144696,130.1927734
1707,鹿児島県,出水市,32.0906442,130.3532057
1708,鹿児島県,指宿市,31.2527702,130.6330314
1709,鹿児島県,西之表市,30.7324118,130.9968353
1710,鹿児島県,垂水市,31.4927344,130.7009143
1711,鹿児島県,薩摩川内市,31.8135171,130.3042445
1712,鹿児島県,日置市,31.6337085,130.4024246
1713,鹿児島県,曽於市,31.65362099999999,131.0193906
1714,鹿児島県,霧島市,31.7408988,130.7629974
1715,鹿児島県,いちき串木野市,31.7145528,130.2719288
1716,鹿児島県,南さつま市,31.4166121,130.3234075
1717,鹿児島県,志布志市,31.495442,131.045336
1718,鹿児島県,奄美市,28.3772482,129.4937408
1719,鹿児島県,南九州市,31.3782621,130.4416449
1720,鹿児島県,伊佐市,32.0572252,130.6131048
1721,鹿児島県,姶良市,31.7282284,130.6278159
1722,鹿児島県,三島村,30.7921704,130.3037572
1723,鹿児島県,十島村,29.8375977,129.8681983
1724,鹿児島県,さつま町,31.9495126,130.5127142
1725,鹿児島県,長島町,32.1993745,130.1768326
1726,鹿児島県,湧水町,31.95158,130.7209244
1727,鹿児島県,大崎町,31.4292005,131.0058651
1728,鹿児島県,東串良町,31.3855168,130.9734947
1729,鹿児島県,錦江町,31.2435663,130.7875955
1730,鹿児島県,南大隅町,31.2172629,130.7680976
1731,鹿児島県,肝付町,31.3442562,130.9450785
1732,鹿児島県,中種子町,30.5328223,130.9588497
1733,鹿児島県,南種子町,30.4140711,130.90086
1734,鹿児島県,屋久島町,30.371299,130.666468
1735,鹿児島県,大和村,28.3580889,129.3952632
1736,鹿児島県,宇検村,28.2807313,129.2970923
1737,鹿児島県,瀬戸内町,28.1465518,129.3146935
1738,鹿児島県,龍郷町,28.4132971,129.5893509
1739,鹿児島県,喜界町,28.316836,129.9400319
1740,鹿児島県,徳之島町,27.7265923,129.018669
1741,鹿児島県,天城町,27.8117819,128.8977017
1742,鹿児島県,伊仙町,27.6735474,128.9377953
1743,鹿児島県,和泊町,27.392287,128.655475
1744,鹿児島県,知名町,27.3336755,128.5737302
1745,鹿児島県,与論町,27.0485267,128.4148322
1746,沖縄県,,26.2124013,127.6809317
1747,沖縄県,那覇市,26.2123124,127.6791568
1748,沖縄県,宜野湾市,26.2815751,127.7786343
1749,沖縄県,石垣市,24.3406606,124.1555804
1750,沖縄県,浦添市,26.2458164,127.7217987
1751,沖縄県,名護市,26.5915465,127.9773162
1752,沖縄県,糸満市,26.1235841,127.6658145
1753,沖縄県,沖縄市,26.3344266,127.8055832
1754,沖縄県,豊見城市,26.1610061,127.668944
1755,沖縄県,うるま市,26.4270624,127.8290812
1756,沖縄県,宮古島市,24.80549,125.2811486
1757,沖縄県,南城市,26.1444519,127.7669666
1758,沖縄県,国頭村,26.745635,128.1779073
1759,沖縄県,大宜味村,26.7017076,128.1201635
1760,沖縄県,東村,26.6333093,128.1569115
1761,沖縄県,今帰仁村,26.6825769,127.9726275
1762,沖縄県,本部町,26.6575766,127.8978309
1763,沖縄県,恩納村,26.4974995,127.8535573
1764,沖縄県,宜野座村,26.4816587,127.9755894
1765,沖縄県,金武町,26.4561262,127.9259364
1766,沖縄県,伊江村,26.7134822,127.8070699
1767,沖縄県,読谷村,26.3960554,127.7442772
1768,沖縄県,嘉手納町,26.3616618,127.755322
1769,沖縄県,北谷町,26.3201191,127.7637755
1770,沖縄県,北中城村,26.3011098,127.7931492
1771,沖縄県,中城村,26.2673794,127.7911255
1772,沖縄県,西原町,26.2228445,127.7588107
1773,沖縄県,与那原町,26.1995771,127.754768
1774,沖縄県,南風原町,26.1911191,127.7285514
1775,沖縄県,渡嘉敷村,26.1973433,127.364286
1776,沖縄県,座間味村,26.2288917,127.3031566
1777,沖縄県,粟国村,26.5823695,127.2271869
1778,沖縄県,渡名喜村,26.3720613,127.1410214
1779,沖縄県,南大東村,25.8286844,131.2320154
1780,沖縄県,北大東村,25.9459514,131.2989939
1781,沖縄県,伊平屋村,27.0390544,127.968666
1782,沖縄県,伊是名村,26.9283631,127.9412093
1783,沖縄県,久米島町,26.3490331,126.7472481
1784,沖縄県,八重瀬町,26.1581804,127.7186873
1785,沖縄県,多良間村,24.6693965,124.7016677
1786,沖縄県,竹富町,24.286667,123.881667
1787,沖縄県,与那国町,24.4679685,123.0044532
